time(millisecond),datetime (pst),datetime(utc),latitude,longitude,height_above_takeoff(feet),height_above_ground_at_drone_location(feet),ground_elevation_at_drone_location(feet),altitude_above_seaLevel(feet),height_sonar(feet),speed(mph),distance(feet),mileage(feet),satellites,gpslevel,voltage(v),max_altitude(feet),max_ascent(feet),max_speed(mph),max_distance(feet), xSpeed(mph), ySpeed(mph), zSpeed(mph), compass_heading(degrees), pitch(degrees), roll(degrees),isPhoto,isVideo,rc_elevator,rc_aileron,rc_throttle,rc_rudder,rc_elevator(percent),rc_aileron(percent),rc_throttle(percent),rc_rudder(percent),gimbal_heading(degrees),gimbal_pitch(degrees),gimbal_roll(degrees),battery_percent,voltageCell1,voltageCell2,voltageCell3,voltageCell4,voltageCell5,voltageCell6,current(A),battery_temperature(f),altitude(feet),ascent(feet),flycStateRaw,flycState,message
46700,4/21/25 22:23,4/22/25 5:23,34.01982468,-118.2899813,0,Available with any HD 360 subscription,Available with any HD 360 subscription,176.0592855,0.328084,0,0,0,16,5,0,176.0592855,0,0,0,0,0,0,16,3.4,0,0,1,1024,1024,1024,1024,0,0,0,0,335.9,0,0,25,3.742,3.739,0,0,0,0,0,95.18,176.0592855,0,41,Motors_Started,
46800,4/21/25 22:23,4/22/25 5:23,34.01982474,-118.2899812,0,,,176.0592855,0.328084,0,0.026268308,0.026268308,16,5,0,176.0592855,0,0,0.026268308,0,0,0,16.1,3.4,0,0,1,1024,1024,1024,1024,0,0,0,0,335.9,0,0,25,3.742,3.739,0,0,0,0,0,95.18,176.0592855,0,41,Motors_Started,Setting new Return-To-Home altitude to 15m (49 ft). Data Recorder File Index is 35. Setting new Maximum Flight Altitude to 30m (98 ft)
46900,4/21/25 22:23,4/22/25 5:23,34.01982477,-118.2899812,0,,,176.0592855,0.328084,0,0.041007547,0.041034778,16,5,7.481,176.0592855,0,0,0.041007547,0,0,0,16.1,3.5,0,0,1,1024,1024,1024,1024,0,0,0,0,335.9,0,0,25,3.742,3.739,0,0,0,0,0.7,95.18,176.0592855,0,41,Motors_Started,Aircraft in Warning Zone (Airport). Fly with caution
47100,4/21/25 22:23,4/22/25 5:23,34.01982501,-118.2899811,0,,,176.0592855,0.328084,0,0.129059387,0.130604007,16,5,7.481,176.0592855,0,0,0.129059387,0,0,0,16.1,3.4,0,0,1,1024,1024,1024,1024,0,0,0,0,335.8,0,0,25,3.742,3.739,0,0,0,0,0.7,95.18,176.0592855,0,41,Motors_Started,
47200,4/21/25 22:23,4/22/25 5:23,34.01982512,-118.2899811,0,,,176.0592855,0.328084,0,0.171563982,0.173206042,15,5,7.481,176.0592855,0,0,0.171563982,0,0,0,16.1,3.4,0,0,1,1024,1024,1024,1024,0,0,0,0,335.9,0,0,25,3.742,3.739,0,0,0,0,0.7,95.18,176.0592855,0,41,Motors_Started,
47300,4/21/25 22:23,4/22/25 5:23,34.01982526,-118.289981,0,,,176.0592855,0.328084,0,0.229911097,0.23173754,15,5,7.481,176.0592855,0,0,0.229911097,0,0,0,16.1,3.4,0,0,1,1024,1024,1024,1024,0,0,0,0,335.8,0,0,25,3.742,3.739,0,0,0,0,0.7,95.18,176.0592855,0,41,Motors_Started,
47400,4/21/25 22:23,4/22/25 5:23,34.01982546,-118.2899808,0,,,176.0592855,0.328084,0,0.319650601,0.323152897,15,5,7.481,176.0592855,0,0,0.319650601,0,0,0,16.1,3.4,0,0,1,1024,1024,1024,1024,0,0,0,0,335.9,0,0,25,3.742,3.739,0,0,0,0,0.7,95.18,176.0592855,0,41,Motors_Started,
47500,4/21/25 22:23,4/22/25 5:23,34.01982557,-118.2899808,0,,,176.0592855,0.328084,0,0.359734263,0.365544631,15,5,7.481,176.0592855,0,0,0.359734263,0,0,0,16.1,3.5,0,0,1,1024,1024,1024,1024,0,0,0,0,335.9,0,0,25,3.742,3.739,0,0,0,0,0.7,95.18,176.0592855,0,41,Motors_Started,
47600,4/21/25 22:23,4/22/25 5:23,34.01982569,-118.2899808,0,,,176.0592855,0.328084,0,0.400980984,0.408953425,15,5,7.481,176.0592855,0,0,0.400980984,0,0,0,16.1,3.5,0,0,1,1024,1024,1024,1024,0,0,0,0,335.9,0,0,25,3.742,3.739,0,0,0,0,0.7,95.18,176.0592855,0,41,Motors_Started,
47700,4/21/25 22:23,4/22/25 5:23,34.01982578,-118.2899807,0,,,176.0592855,0.328084,0,0.436069568,0.444458676,15,5,7.481,176.0592855,0,0,0.436069568,0,0,0,16.1,3.5,0,0,1,1024,1024,1024,1024,0,0,0,0,335.9,0,0,25,3.742,3.739,0,0,0,0,0.7,95.18,176.0592855,0,41,Motors_Started,
47800,4/21/25 22:23,4/22/25 5:23,34.01982581,-118.2899808,0,,,176.0592855,0.328084,0,0.437726392,0.470141091,15,5,7.481,176.0592855,0,0,0.437726392,0,0,0,16.1,3.5,0,0,1,1024,1024,1024,1024,0,0,0,0,335.9,0,0,25,3.742,3.739,0,0,0,0,0.7,95.18,176.0592855,0,11,AutoTakeoff,
47900,4/21/25 22:23,4/22/25 5:23,34.01982585,-118.2899808,0,,,176.0592855,0.328084,0,0.454645684,0.488126656,15,5,7.481,176.0592855,0,0,0.454645684,0,0,0,16.1,3.5,0,0,1,1024,1024,1024,1024,0,0,0,0,335.9,0,0,25,3.742,3.739,0,0,0,0,0.7,95.18,176.0592855,0,11,AutoTakeoff,
48000,4/21/25 22:23,4/22/25 5:23,34.01982589,-118.2899807,0,,,176.0592855,0.328084,0,0.472565632,0.507040699,15,5,7.481,176.0592855,0,0,0.472565632,0,0,0,16.1,3.4,0,0,1,1024,1024,1024,1024,0,0,0,0,335.9,0,0,25,3.742,3.739,0,0,0,0,0.7,95.18,176.0592855,0,11,AutoTakeoff,
48100,4/21/25 22:23,4/22/25 5:23,34.01982591,-118.2899807,0,,,176.0592855,0.328084,0,0.479347128,0.515082037,15,5,7.418,176.0592855,0,0,0.479347128,0,0,0,16,3.4,0,0,1,1024,1024,1024,1024,0,0,0,0,335.9,0,0,25,3.704,3.695,0,0,0,0,1.344,95.18,176.0592855,0,11,AutoTakeoff,
48200,4/21/25 22:23,4/22/25 5:23,34.01982575,-118.2899808,0,,,176.0592855,0.328084,0,0.418202113,0.576466554,14,5,7.418,176.0592855,0,0,0.479347128,0,0,0,15.9,3.4,0,0,1,1024,1024,1024,1024,0,0,0,0,335.9,0,0,25,3.704,3.695,0,0,0,0,1.344,95.18,176.0592855,0,11,AutoTakeoff,
48300,4/21/25 22:23,4/22/25 5:23,34.01982587,-118.2899808,0,,,176.0592855,0.328084,0,0.461200802,0.620170624,14,5,7.418,176.0592855,0,0,0.479347128,0,0,0,15.5,3.1,0,0,1,1024,1024,1024,1024,0,0,0,0,335.9,0,0,25,3.704,3.695,0,0,0,0,1.344,95.18,176.0592855,0,11,AutoTakeoff,
48400,4/21/25 22:23,4/22/25 5:23,34.01982598,-118.2899807,0,,,176.0592855,0.328084,0,0.502877313,0.662372068,14,5,7.418,176.0592855,0,0,0.502877313,0,0,0,15.4,0,-0.1,0,1,1024,1024,1024,1024,0,0,0,0,335.8,0,0,25,3.704,3.695,0,0,0,0,1.344,95.18,176.0592855,0,11,AutoTakeoff,
48500,4/21/25 22:23,4/22/25 5:23,34.01982604,-118.2899807,0,,,176.0592855,0.328084,0,0.52708335,0.686994773,14,5,7.418,176.0592855,0,0,0.52708335,0,0,-0.223694,15,-2.1,-1.1,0,1,1024,1024,1024,1024,0,0,0,0,335.8,0,0,25,3.704,3.695,0,0,0,0,1.344,95.18,176.0592855,0,11,AutoTakeoff,
48600,4/21/25 22:23,4/22/25 5:23,34.01982616,-118.2899806,0,,,176.0592855,0.328084,0,0.575774297,0.736322202,14,5,7.418,176.0592855,0,0,0.575774297,0,0,-0.447388,14.7,-1.8,-0.8,0,1,1024,1024,1024,1024,0,0,0,0,335.8,0,0,25,3.704,3.695,0,0,0,0,1.344,95.18,176.0592855,0,11,AutoTakeoff,
48700,4/21/25 22:23,4/22/25 5:23,34.01982624,-118.2899806,0.328084,,,176.3873695,0.328084,0,0.60687666,0.767463935,14,5,7.418,176.3873695,0.328084,0,0.60687666,0,0,-0.671082,14.9,-0.7,-0.2,0,1,1024,1024,1024,1024,0,0,0,0,335.7,0,0,25,3.704,3.695,0,0,0,0,1.344,95.18,176.3873695,0.328084,11,AutoTakeoff,
48800,4/21/25 22:23,4/22/25 5:23,34.01982634,-118.2899805,0.328084,,,176.3873695,0.656168,0,0.644042015,0.804753963,14,5,7.418,176.3873695,0.328084,0,0.644042015,0,0,-0.894776,15,0,0.2,0,1,1024,1024,1024,1024,0,0,0,0,335.7,0,0,25,3.704,3.695,0,0,0,0,1.344,95.18,176.3873695,0.328084,11,AutoTakeoff,
48900,4/21/25 22:23,4/22/25 5:23,34.01982654,-118.2899806,0.328084,,,176.3873695,0.656168,0,0.712673907,0.878001997,14,5,7.418,176.3873695,0.328084,0,0.712673907,0,0,-1.11847,14.8,0.4,0.2,0,1,1024,1024,1024,1024,0,0,0,0,335.7,0,0,25,3.704,3.695,0,0,0,0,1.344,95.18,176.3873695,0.328084,11,AutoTakeoff,
49000,4/21/25 22:23,4/22/25 5:23,34.01982674,-118.2899806,0.656168,,,176.7154535,0.656168,0,0.78279202,0.951499374,14,5,7.418,176.7154535,0.656168,0,0.78279202,0,0,-1.342164,14.9,0.4,0.3,0,1,1024,1024,1024,1024,0,0,0,0,335.6,0,0,25,3.704,3.695,0,0,0,0,1.344,95.18,176.7154535,0.656168,11,AutoTakeoff,
49100,4/21/25 22:23,4/22/25 5:23,34.01982706,-118.2899805,0.656168,,,176.7154535,0.984252,0,0.8990289,1.068195572,14,5,7.341,176.7154535,0.656168,0,0.8990289,0,0,-1.565858,14.8,0.2,0.2,0,1,1024,1024,1024,1024,0,0,0,0,335.6,0,0,25,3.611,3.587,0,0,0,0,2.321,95.18,176.7154535,0.656168,11,AutoTakeoff,
49200,4/21/25 22:23,4/22/25 5:23,34.01982723,-118.2899804,0.984252,,,177.0435375,1.312336,0,0.963267747,1.1324377,14,5,7.341,177.0435375,0.984252,0,0.963267747,0,0,-1.789552,14.8,0.5,0.1,0,1,1024,1024,1024,1024,0,0,0,0,335.6,0,0,25,3.611,3.587,0,0,0,0,2.321,95.18,177.0435375,0.984252,11,AutoTakeoff,
49300,4/21/25 22:23,4/22/25 5:23,34.01982727,-118.2899804,1.312336,,,177.3716215,1.64042,0,0.979678509,1.149731008,14,5,7.341,177.3716215,1.312336,0,0.979678509,0,0,-2.013246,14.7,1.4,-0.1,0,1,1024,1024,1024,1024,0,0,0,0,335.5,0,0,25,3.611,3.587,0,0,0,0,2.321,95.18,177.3716215,1.312336,11,AutoTakeoff,
49400,4/21/25 22:23,4/22/25 5:23,34.01982729,-118.2899804,1.64042,,,177.6997055,1.968504,0,0.98944557,1.161046625,13,5,7.341,177.6997055,1.64042,0,0.98944557,0,0,-2.013246,14.8,1.1,-0.4,0,1,1024,1024,1024,1024,0,0,0,0,335.5,0,0,25,3.611,3.587,0,0,0,0,2.321,95.18,177.6997055,1.64042,11,AutoTakeoff,
49500,4/21/25 22:23,4/22/25 5:23,34.01982706,-118.2899804,1.968504,,,178.0277895,2.296588,0,0.904147011,1.246870119,13,5,7.341,178.0277895,1.968504,0,0.98944557,0,0,-2.23694,14.8,2.3,-0.4,0,1,1024,1024,1024,1024,0,0,0,0,335.5,0,0,25,3.611,3.587,0,0,0,0,2.321,95.18,178.0277895,1.968504,11,AutoTakeoff,
49600,4/21/25 22:23,4/22/25 5:23,34.01982703,-118.2899804,2.296588,,,178.3558735,2.624672,0,0.891820895,1.259947547,12,4,7.341,178.3558735,2.296588,0,0.98944557,0,0,-2.23694,14.8,1.4,-0.1,0,1,1024,1024,1024,1024,0,0,0,0,335.5,0,0,25,3.611,3.587,0,0,0,0,2.321,95.18,178.3558735,2.296588,11,AutoTakeoff,
49700,4/21/25 22:23,4/22/25 5:23,34.01982695,-118.2899805,2.624672,,,178.6839575,2.952756,0,0.855708689,1.302457391,12,4,7.341,178.6839575,2.624672,0,0.98944557,0,0,-2.23694,14.8,0.7,0.2,0,1,1024,1024,1024,1024,0,0,0,0,335.5,0,0,25,3.611,3.587,0,0,0,0,2.321,95.18,178.6839575,2.624672,6,P-GPS,
49800,4/21/25 22:23,4/22/25 5:23,34.01982685,-118.2899807,2.952756,,,179.0120415,3.28084,0,0.813582703,1.350912117,14,4,7.341,179.0120415,2.952756,0,0.98944557,0,0,-2.013246,15.1,0.2,0.2,0,1,1024,1024,1024,1024,0,0,0,0,335.5,0,0,25,3.611,3.587,0,0,0,0,2.321,95.18,179.0120415,2.952756,6,P-GPS,
49900,4/21/25 22:23,4/22/25 5:23,34.01982665,-118.2899805,3.28084,,,179.3401255,3.608924,0,0.753713935,1.434297946,14,4,7.341,179.3401255,3.28084,0,0.98944557,0,0,-1.789552,15.5,-0.2,0.3,0,1,1024,1024,1024,1024,0,0,0,0,335.5,0,0,25,3.611,3.587,0,0,0,0,2.321,95.18,179.3401255,3.28084,6,P-GPS,
50000,4/21/25 22:23,4/22/25 5:23,34.01982657,-118.2899804,3.28084,,,179.3401255,3.608924,0,0.734409472,1.473185743,12,4,7.341,179.3401255,3.28084,0,0.98944557,0,0,-1.11847,15.6,-0.8,0.4,0,1,1024,1024,1024,1024,0,0,0,0,335.5,0,0,25,3.611,3.587,0,0,0,0,2.321,95.18,179.3401255,3.28084,6,P-GPS,
50100,4/21/25 22:23,4/22/25 5:23,34.01982626,-118.2899805,3.608924,,,179.6682095,3.937008,0,0.616614193,1.591312387,12,4,7.152,179.6682095,3.608924,0,0.98944557,0,0,-0.671082,15.7,-0.8,0.4,0,1,1024,1024,1024,1024,0,0,0,0,335.5,0,0,25,3.594,3.581,0,0,0,0,5.349,95.18,179.6682095,3.608924,6,P-GPS,
50200,4/21/25 22:23,4/22/25 5:23,34.01982594,-118.2899807,3.608924,,,179.6682095,3.937008,0,0.496082693,1.712444281,13,4,7.152,179.6682095,3.608924,0,0.98944557,0,0,-0.223694,15.7,-0.8,0.3,0,1,1024,1024,1024,1024,0,0,0,0,335.5,0,0,25,3.594,3.581,0,0,0,0,5.349,95.18,179.6682095,3.608924,6,P-GPS,
50300,4/21/25 22:23,4/22/25 5:23,34.01982492,-118.2899815,3.608924,,,179.6682095,3.937008,0,0.102757221,2.158264505,13,4,7.152,179.6682095,3.608924,0,0.98944557,0,0,0,15.7,-0.6,0.2,0,1,1024,1024,1024,1024,0,0,0,0,335.5,0,0,25,3.594,3.581,0,0,0,0,5.349,95.18,179.6682095,3.608924,6,P-GPS,
50400,4/21/25 22:23,4/22/25 5:23,34.01982459,-118.2899817,3.608924,,,179.6682095,3.937008,0,0.137015096,2.301292725,13,4,7.152,179.6682095,3.608924,0,0.98944557,0,0,0,15.6,-0.5,0.4,0,1,1024,1024,1024,1024,0,0,0,0,335.5,0,0,25,3.594,3.581,0,0,0,0,5.349,95.18,179.6682095,3.608924,6,P-GPS,
50500,4/21/25 22:23,4/22/25 5:23,34.0198246,-118.2899817,3.608924,,,179.6682095,3.937008,0,0.142403548,2.310072252,13,4,7.152,179.6682095,3.608924,0,0.98944557,0,0,0,15.6,-0.5,0.3,0,1,1024,1024,1024,1024,0,0,0,0,335.5,0,0,25,3.594,3.581,0,0,0,0,5.349,95.18,179.6682095,3.608924,6,P-GPS,
50600,4/21/25 22:23,4/22/25 5:23,34.01982462,-118.2899818,3.608924,,,179.6682095,3.937008,0,0.144804467,2.318136557,14,4,7.152,179.6682095,3.608924,0,0.98944557,0,0,0,15.6,-0.4,0.2,0,1,1024,1024,1024,1024,0,0,0,0,335.5,0,0,25,3.594,3.581,0,0,0,0,5.349,95.18,179.6682095,3.608924,6,P-GPS,
50700,4/21/25 22:23,4/22/25 5:23,34.01982443,-118.2899818,3.608924,,,179.6682095,3.937008,0,0.188669297,2.391204145,14,4,7.152,179.6682095,3.608924,0,0.98944557,0,0,0,15.6,-0.2,0,0,1,1024,1024,1024,1024,0,0,0,0,335.5,0,0,25,3.594,3.581,0,0,0,0,5.349,95.18,179.6682095,3.608924,6,P-GPS,
50800,4/21/25 22:23,4/22/25 5:23,34.01982443,-118.2899819,3.608924,,,179.6682095,3.937008,0,0.198387802,2.401502702,15,4,7.152,179.6682095,3.608924,0,0.98944557,0,0,0,15.6,0,-0.3,0,1,1024,1024,1024,1024,0,0,0,0,335.5,0,0,25,3.594,3.581,0,0,0,0,5.349,95.18,179.6682095,3.608924,6,P-GPS,
50900,4/21/25 22:23,4/22/25 5:23,34.01982461,-118.2899818,3.608924,,,179.6682095,3.937008,0,0.154289703,2.474019108,15,4,7.152,179.6682095,3.608924,0,0.98944557,0,0,0,15.6,0,-0.4,0,1,1024,1024,1024,1024,0,0,0,0,335.5,0,0,25,3.594,3.581,0,0,0,0,5.349,95.18,179.6682095,3.608924,6,P-GPS,
51000,4/21/25 22:23,4/22/25 5:23,34.01982482,-118.2899817,3.608924,,,179.6682095,3.937008,0,0.138648626,2.551076197,16,4,7.152,179.6682095,3.608924,0,0.98944557,0,0,0,15.6,-0.1,-0.4,0,1,1024,1024,1024,1024,0,0,0,0,335.5,0,0,25,3.594,3.581,0,0,0,0,5.349,95.18,179.6682095,3.608924,6,P-GPS,
51100,4/21/25 22:23,4/22/25 5:23,34.01982499,-118.2899816,3.608924,,,179.6682095,3.937008,0,0.15110696,2.621968588,16,4,7.225,179.6682095,3.608924,0,0.98944557,0,0,0,15.6,-0.1,-0.4,0,1,1075,1024,1024,1024,8,0,0,0,335.5,0,0,25,3.601,3.579,0,0,0,0,4.334,95.18,179.6682095,3.608924,6,P-GPS,
51200,4/21/25 22:23,4/22/25 5:23,34.01982597,-118.2899812,3.608924,,,179.6682095,3.937008,0,0.469809726,3.003189072,16,4,7.225,179.6682095,3.608924,0,0.98944557,0,0,0,15.6,-0.2,-0.7,0,1,1096,1024,1024,1024,11,0,0,0,335.5,0,0,25,3.601,3.579,0,0,0,0,4.334,95.18,179.6682095,3.608924,6,P-GPS,
51300,4/21/25 22:23,4/22/25 5:23,34.01982613,-118.2899811,3.608924,,,179.6682095,3.937008,0,0.530492143,3.063878051,16,4,7.225,179.6682095,3.608924,0,0.98944557,0,0,0,15.6,-0.5,-0.4,0,1,1096,1024,1024,1024,11,0,0,0,335.5,0,0,25,3.601,3.579,0,0,0,0,4.334,95.18,179.6682095,3.608924,6,P-GPS,
51400,4/21/25 22:23,4/22/25 5:23,34.01982631,-118.2899811,3.608924,,,179.6682095,3.937008,0,0.596663405,3.130147738,15,4,7.225,179.6682095,3.608924,0,0.98944557,0,0,0,15.6,-0.7,-0.3,0,1,1096,1024,1024,1024,11,0,0,0,335.5,0,0,25,3.601,3.579,0,0,0,0,4.334,95.18,179.6682095,3.608924,6,P-GPS,
51500,4/21/25 22:23,4/22/25 5:23,34.01982653,-118.2899811,3.608924,,,179.6682095,3.937008,0,0.675442935,3.208923987,15,4,7.225,179.6682095,3.608924,0,0.98944557,0,0,0,15.6,-0.7,-0.3,0,1,1096,1024,1024,1024,11,0,0,0,335.5,0,0,25,3.601,3.579,0,0,0,0,4.334,95.18,179.6682095,3.608924,6,P-GPS,
51600,4/21/25 22:23,4/22/25 5:23,34.01982708,-118.2899811,3.608924,,,179.6682095,3.937008,0,0.878244779,3.411712708,15,4,7.225,179.6682095,3.608924,0,0.98944557,0,0,0,15.6,-0.8,-0.3,0,1,1092,1024,1024,1024,10,0,0,0,335.5,0,0,25,3.601,3.579,0,0,0,0,4.334,95.18,179.6682095,3.608924,6,P-GPS,
51700,4/21/25 22:23,4/22/25 5:23,34.01982731,-118.2899811,3.608924,,,179.6682095,3.937008,0,0.959199506,3.493241582,15,4,7.225,179.6682095,3.608924,0,0.98944557,0,0,0,15.6,-0.7,-0.4,0,1,1083,1024,1024,1024,9,0,0,0,335.5,0,0,25,3.601,3.579,0,0,0,0,4.334,95.18,179.6682095,3.608924,6,P-GPS,
51800,4/21/25 22:23,4/22/25 5:23,34.01982755,-118.2899811,3.608924,,,179.6682095,3.937008,0,1.046538747,3.581168094,15,4,7.225,179.6682095,3.608924,0,1.046538747,0,0,0,15.6,-0.8,-0.4,0,1,1076,1024,1024,1024,8,0,0,0,335.5,0,0,25,3.601,3.579,0,0,0,0,4.334,95.18,179.6682095,3.608924,6,P-GPS,
51900,4/21/25 22:23,4/22/25 5:23,34.01982777,-118.2899812,3.608924,,,179.6682095,3.937008,0,1.12544623,3.663648411,15,4,7.225,179.6682095,3.608924,0,1.12544623,0,0,0,15.6,-0.7,-0.3,0,1,1076,1024,1024,1024,8,0,0,0,335.5,0,0,25,3.601,3.579,0,0,0,0,4.334,95.18,179.6682095,3.608924,6,P-GPS,
52000,4/21/25 22:23,4/22/25 5:23,34.01982811,-118.2899814,3.608924,,,179.6682095,3.937008,0,1.249012507,3.801706158,15,4,7.225,179.6682095,3.608924,0,1.249012507,0,0,0,15.6,-0.6,-0.3,0,1,1073,1024,1024,1024,7,0,0,0,335.5,0,0,25,3.601,3.579,0,0,0,0,4.334,95.18,179.6682095,3.608924,6,P-GPS,
52100,4/21/25 22:23,4/22/25 5:23,34.01982826,-118.2899814,3.608924,,,179.6682095,3.937008,0,1.30429138,3.85764448,15,4,7.173,179.6682095,3.608924,0,1.30429138,0,0,0,15.6,-0.6,-0.3,0,1,1074,1024,1024,1024,8,0,0,0,335.5,0,0,25,3.597,3.576,0,0,0,0,4.795,95.18,179.6682095,3.608924,6,P-GPS,
52200,4/21/25 22:23,4/22/25 5:23,34.01982842,-118.2899814,3.608924,,,179.6682095,3.937008,0,1.364163429,3.918110362,15,4,7.173,179.6682095,3.608924,0,1.364163429,0,0,0,15.6,-0.5,-0.2,0,1,1121,1024,1024,1024,15,0,0,0,335.5,0,0,25,3.597,3.576,0,0,0,0,4.795,95.18,179.6682095,3.608924,6,P-GPS,
52300,4/21/25 22:23,4/22/25 5:23,34.01982858,-118.2899814,3.608924,,,179.6682095,3.937008,0,1.422375374,3.97782165,15,4,7.173,179.6682095,3.608924,0,1.422375374,0,0,0,15.6,-0.7,-0.2,0,1,1246,1024,1024,1024,34,0,0,0,335.5,0,0,25,3.597,3.576,0,0,0,0,4.795,95.18,179.6682095,3.608924,6,P-GPS,
52400,4/21/25 22:23,4/22/25 5:23,34.01982876,-118.2899814,3.608924,,,179.6682095,3.937008,0,1.486906216,4.04383215,15,4,7.173,179.6682095,3.608924,0,1.486906216,0,0,0,15.6,-1.4,-0.2,0,1,1273,1024,1024,1024,38,0,0,0,335.5,0,0,25,3.597,3.576,0,0,0,0,4.795,95.18,179.6682095,3.608924,6,P-GPS,
52500,4/21/25 22:23,4/22/25 5:23,34.01982857,-118.2899812,3.608924,,,179.6682095,3.937008,0,1.41794624,4.131496195,15,4,7.173,179.6682095,3.608924,0,1.486906216,0,0,0,15.6,-3,-0.3,0,1,1275,1024,1024,1024,38,0,0,0,335.5,0,0,25,3.597,3.576,0,0,0,0,4.795,95.18,179.6682095,3.608924,6,P-GPS,
52600,4/21/25 22:23,4/22/25 5:23,34.01982873,-118.2899811,3.608924,,,179.6682095,3.937008,0.223694,1.479028919,4.193405646,14,4,7.173,179.6682095,3.608924,0.223694,1.486906216,0.223694,0,0,15.6,-4,-0.4,0,1,1273,1024,1024,1024,38,0,0,0,335.5,0,0,25,3.597,3.576,0,0,0,0,4.795,95.18,179.6682095,3.608924,6,P-GPS,
52700,4/21/25 22:23,4/22/25 5:23,34.01982877,-118.2899811,3.608924,,,179.6682095,3.937008,0.447388,1.491279575,4.210433206,14,4,7.173,179.6682095,3.608924,0.447388,1.491279575,0.447388,0,0,15.5,-4.1,-0.3,0,1,1273,1024,1024,1024,38,0,0,0,335.5,0,0,25,3.597,3.576,0,0,0,0,4.795,95.18,179.6682095,3.608924,6,P-GPS,Home Point updated. RTH altitude adjusted to 15 m (Code: 120852)
52800,4/21/25 22:23,4/22/25 5:23,34.01982886,-118.289981,3.608924,,,179.6682095,3.937008,0.4921268,1.524855692,4.24767074,14,4,7.173,179.6682095,3.608924,0.4921268,1.524855692,0.447388,0.223694,0,15.5,-4,-0.3,0,1,1273,1024,1024,1024,38,0,0,0,335.5,0,0,25,3.597,3.576,0,0,0,0,4.795,95.18,179.6682095,3.608924,6,P-GPS,
52900,4/21/25 22:23,4/22/25 5:23,34.01982851,-118.2899807,3.608924,,,179.6682095,3.937008,0.7158208,1.405187053,4.409153684,14,4,7.173,179.6682095,3.608924,0.7158208,1.524855692,0.671082,0.223694,0,15.4,-3.8,-0.4,0,1,1265,1024,1024,1024,37,0,0,0,335.5,0,0,25,3.597,3.576,0,0,0,0,4.795,95.18,179.6682095,3.608924,6,P-GPS,
53000,4/21/25 22:23,4/22/25 5:23,34.01982874,-118.2899805,3.608924,,,179.6682095,3.937008,0.7158208,1.498694274,4.512303294,13,4,7.173,179.6682095,3.608924,0.7158208,1.524855692,0.671082,0.223694,0,15.4,-3.6,-0.4,0,1,1266,1024,1024,1024,37,0,0,0,335.5,0,0,25,3.597,3.576,0,0,0,0,4.795,95.18,179.6682095,3.608924,6,P-GPS,
53100,4/21/25 22:23,4/22/25 5:23,34.01982892,-118.2899804,3.608924,,,179.6682095,3.937008,0.9171454,1.568713961,4.585695685,13,4,7.173,179.6682095,3.608924,0.9171454,1.568713961,0.894776,0.223694,0,15.4,-3.4,-0.4,0,1,1264,1024,1024,1024,36,0,0,0,335.5,0,0,25,3.597,3.576,0,0,0,0,4.795,95.18,179.6682095,3.608924,6,P-GPS,
53200,4/21/25 22:23,4/22/25 5:23,34.01982916,-118.2899803,3.608924,,,179.6682095,3.937008,0.9171454,1.659409502,4.678805924,13,4,7.168,179.6682095,3.608924,0.9171454,1.659409502,0.894776,0.223694,0,15.4,-3.4,-0.4,0,1,1254,1024,1024,1024,35,0,0,0,335.5,0,0,25,3.593,3.57,0,0,0,0,4.725,95.18,179.6682095,3.608924,6,P-GPS,
53300,4/21/25 22:23,4/22/25 5:23,34.01982912,-118.2899801,3.608924,,,179.6682095,3.937008,1.1408394,1.653280893,4.728477842,13,4,7.168,179.6682095,3.608924,1.1408394,1.659409502,1.11847,0.223694,0,15.3,-3,-0.6,0,1,1247,1024,1024,1024,34,0,0,0,335.5,0,0,25,3.593,3.57,0,0,0,0,4.725,95.18,179.6682095,3.608924,6,P-GPS,
53400,4/21/25 22:23,4/22/25 5:23,34.01982947,-118.28998,3.608924,,,179.6682095,3.937008,1.1408394,1.79145675,4.868176009,13,4,7.168,179.6682095,3.608924,1.1408394,1.79145675,1.11847,0.223694,0,15.4,-3,-0.5,0,1,1238,1024,1024,1024,32,0,0,0,335.5,0,0,25,3.593,3.57,0,0,0,0,4.725,95.18,179.6682095,3.608924,6,P-GPS,
53500,4/21/25 22:23,4/22/25 5:23,34.01983022,-118.2899796,3.608924,,,179.6682095,3.937008,1.1408394,2.08302172,5.16404216,13,4,7.168,179.6682095,3.608924,1.1408394,2.08302172,1.11847,0.223694,0,15.4,-3,-0.6,0,1,1226,1024,1024,1024,31,0,0,0,335.5,0,0,25,3.593,3.57,0,0,0,0,4.725,95.18,179.6682095,3.608924,6,P-GPS,
53600,4/21/25 22:23,4/22/25 5:23,34.01983103,-118.2899792,3.608924,,,179.6682095,3.937008,1.1408394,2.401092597,5.484842695,13,4,7.168,179.6682095,3.608924,1.1408394,2.401092597,1.342164,0.223694,0,15.5,-3,-0.3,0,1,1227,1024,1024,1024,31,0,0,0,335.5,0,0,25,3.593,3.57,0,0,0,0,4.725,95.18,179.6682095,3.608924,6,P-GPS,
53700,4/21/25 22:23,4/22/25 5:23,34.01983154,-118.2899788,3.608924,,,179.6682095,3.937008,1.3645334,2.611335385,5.70393719,13,4,7.168,179.6682095,3.608924,1.3645334,2.611335385,1.342164,0.223694,0,15.5,-2.8,0,0,1,1227,1024,1024,1024,31,0,0,0,335.5,0,0,25,3.593,3.57,0,0,0,0,4.725,95.18,179.6682095,3.608924,6,P-GPS,
53800,4/21/25 22:23,4/22/25 5:23,34.01983192,-118.2899787,3.608924,,,179.6682095,3.937008,1.3645334,2.757549301,5.850164229,13,4,7.168,179.6682095,3.608924,1.3645334,2.757549301,1.342164,0.223694,0,15.5,-2.7,0.1,0,1,1226,1024,1024,1024,31,0,0,0,335.5,0,0,25,3.593,3.57,0,0,0,0,4.725,95.18,179.6682095,3.608924,6,P-GPS,
53900,4/21/25 22:23,4/22/25 5:23,34.01983243,-118.2899783,3.608924,,,179.6682095,3.937008,1.3645334,2.961296027,6.057414892,13,4,7.168,179.6682095,3.608924,1.3645334,2.961296027,1.342164,0.223694,0,15.6,-2.8,0.4,0,1,1225,1024,1024,1024,30,0,0,0,335.5,0,0,25,3.593,3.57,0,0,0,0,4.725,95.18,179.6682095,3.608924,6,P-GPS,
54000,4/21/25 22:23,4/22/25 5:23,34.01983298,-118.289978,3.608924,,,179.6682095,3.937008,1.3645334,3.186223855,6.285662931,13,4,7.168,179.6682095,3.608924,1.3645334,3.186223855,1.342164,0.223694,0,15.6,-3,0.2,0,1,1224,1024,1024,1024,30,0,0,0,335.5,0,0,25,3.593,3.57,0,0,0,0,4.725,95.18,179.6682095,3.608924,6,P-GPS,
54100,4/21/25 22:23,4/22/25 5:23,34.01983328,-118.2899778,3.608924,,,179.6682095,3.937008,1.3645334,3.31138462,6.4140422,13,4,7.168,179.6682095,3.608924,1.3645334,3.31138462,1.342164,0.223694,0,15.6,-3,0,0,1,1224,1024,1024,1024,30,0,0,0,335.5,0,0,25,3.593,3.57,0,0,0,0,4.725,95.18,179.6682095,3.608924,6,P-GPS,
54200,4/21/25 22:23,4/22/25 5:23,34.01983318,-118.2899774,3.608924,,,179.6682095,3.937008,1.6329662,3.309186458,6.524179999,14,4,7.165,179.6682095,3.608924,1.6329662,3.31138462,1.565858,0.447388,0,15.6,-3.2,0,0,1,1214,1024,1024,1024,29,0,0,0,335.5,0,0,25,3.595,3.571,0,0,0,0,4.681,95.18,179.6682095,3.608924,6,P-GPS,
54300,4/21/25 22:23,4/22/25 5:23,34.01983361,-118.289977,3.608924,,,179.6682095,3.937008,1.6329662,3.503280952,6.727099953,14,4,7.165,179.6682095,3.608924,1.6329662,3.503280952,1.565858,0.447388,0,15.6,-2.9,0,0,1,1211,1024,1024,1024,28,0,0,0,335.5,0,0,25,3.595,3.571,0,0,0,0,4.681,95.18,179.6682095,3.608924,6,P-GPS,
54400,4/21/25 22:23,4/22/25 5:23,34.0198341,-118.2899766,3.608924,,,179.6682095,3.937008,1.6329662,3.717847888,6.950098648,14,4,7.165,179.6682095,3.608924,1.6329662,3.717847888,1.565858,0.447388,0,15.6,-2.9,-0.1,0,1,1201,1024,1024,1024,27,0,0,0,335.5,0,0,25,3.595,3.571,0,0,0,0,4.681,95.18,179.6682095,3.608924,6,P-GPS,
54500,4/21/25 22:23,4/22/25 5:23,34.0198347,-118.289976,3.608924,,,179.6682095,3.937008,1.6329662,3.983366269,7.223228578,14,4,7.165,179.6682095,3.608924,1.6329662,3.983366269,1.565858,0.447388,0,15.6,-2.8,-0.6,0,1,1201,1024,1024,1024,27,0,0,0,335.5,0,0,25,3.595,3.571,0,0,0,0,4.681,95.18,179.6682095,3.608924,6,P-GPS,
54600,4/21/25 22:23,4/22/25 5:23,34.01983542,-118.2899749,3.608924,,,179.6682095,3.937008,1.6329662,4.365649746,7.653674786,14,4,7.165,179.6682095,3.608924,1.6329662,4.365649746,1.565858,0.447388,0,15.8,-2.8,-0.3,0,1,1201,1024,1024,1024,27,0,0,0,335.5,0,0,25,3.595,3.571,0,0,0,0,4.681,95.18,179.6682095,3.608924,6,P-GPS,
54700,4/21/25 22:23,4/22/25 5:23,34.01983599,-118.2899744,3.608924,,,179.6682095,3.937008,1.6329662,4.618143192,7.909514689,14,4,7.165,179.6682095,3.608924,1.6329662,4.618143192,1.565858,0.447388,0,15.8,-2.6,-0.1,0,1,1181,1024,1024,1024,24,0,0,0,335.5,0,0,25,3.595,3.571,0,0,0,0,4.681,95.18,179.6682095,3.608924,6,P-GPS,
54800,4/21/25 22:23,4/22/25 5:23,34.01983659,-118.2899739,3.608924,,,179.6682095,3.937008,1.8342908,4.885006718,8.179363779,15,4,7.165,179.6682095,3.608924,1.8342908,4.885006718,1.789552,0.447388,0,15.8,-2.1,-0.1,0,1,1160,1024,1024,1024,21,0,0,0,335.5,0,0,25,3.595,3.571,0,0,0,0,4.681,95.18,179.6682095,3.608924,6,P-GPS,
54900,4/21/25 22:23,4/22/25 5:23,34.01983664,-118.2899736,3.608924,,,179.6682095,3.937008,1.8342908,4.936909607,8.260630186,15,4,7.165,179.6682095,3.608924,1.8342908,4.936909607,1.789552,0.447388,0,15.8,-1.7,0,0,1,1156,1024,1024,1024,20,0,0,0,335.5,0,0,25,3.595,3.571,0,0,0,0,4.681,95.18,179.6682095,3.608924,6,P-GPS,
55000,4/21/25 22:23,4/22/25 5:23,34.01983574,-118.2899736,3.608924,,,179.6682095,3.937008,1.8342908,4.657742931,8.590190564,13,4,7.165,179.6682095,3.608924,1.8342908,4.936909607,1.789552,0.447388,0,15.7,-1.1,-0.3,0,1,1146,1024,1024,1024,18,0,0,0,335.5,0,0,25,3.595,3.571,0,0,0,0,4.681,95.18,179.6682095,3.608924,6,P-GPS,
55100,4/21/25 22:23,4/22/25 5:23,34.01983582,-118.2899732,3.608924,,,179.6682095,3.937008,1.8342908,4.735990965,8.699803428,13,4,7.165,179.6682095,3.608924,1.8342908,4.936909607,1.789552,0.447388,0,15.6,-1,-0.6,0,1,1120,1024,1024,1024,15,0,0,0,335.5,0,0,25,3.595,3.571,0,0,0,0,4.681,95.18,179.6682095,3.608924,6,P-GPS,
55200,4/21/25 22:23,4/22/25 5:23,34.01983592,-118.2899728,3.608924,,,179.6682095,3.937008,1.8342908,4.827067084,8.820111831,14,4,7.154,179.6682095,3.608924,1.8342908,4.936909607,1.789552,0.447388,0,15.6,-0.8,-0.9,0,1,1108,1024,1024,1024,13,0,0,0,335.5,0,0,25,3.589,3.565,0,0,0,0,4.65,95.36,179.6682095,3.608924,6,P-GPS,
55300,4/21/25 22:23,4/22/25 5:23,34.01983615,-118.2899724,3.608924,,,179.6682095,3.937008,1.6329662,4.96473113,8.969718135,14,4,7.154,179.6682095,3.608924,1.8342908,4.96473113,1.565858,0.447388,0,15.6,-0.7,-0.9,0,1,1098,1024,1024,1024,11,0,0,0,335.5,0,0,25,3.589,3.565,0,0,0,0,4.65,95.36,179.6682095,3.608924,6,P-GPS,
55400,4/21/25 22:23,4/22/25 5:23,34.01983594,-118.289972,3.608924,,,179.6682095,3.937008,1.7000744,4.96801197,9.117552785,13,4,7.154,179.6682095,3.608924,1.8342908,4.96801197,1.565858,0.671082,0,15.6,-0.9,-0.6,0,1,1098,1024,1024,1024,11,0,0,0,335.5,0,0,25,3.589,3.565,0,0,0,0,4.65,95.36,179.6682095,3.608924,6,P-GPS,
55500,4/21/25 22:23,4/22/25 5:23,34.01983647,-118.2899715,3.608924,,,179.6682095,3.937008,1.6329662,5.219094655,9.369554106,13,4,7.154,179.6682095,3.608924,1.8342908,5.219094655,1.565858,0.447388,0,15.5,-0.8,-0.6,0,1,1091,1024,1024,1024,10,0,0,0,335.5,0,0,25,3.589,3.565,0,0,0,0,4.65,95.36,179.6682095,3.608924,6,P-GPS,
55600,4/21/25 22:23,4/22/25 5:23,34.01983701,-118.289971,3.608924,,,179.6682095,3.937008,1.4987498,5.474048732,9.625328392,13,4,7.154,179.6682095,3.608924,1.8342908,5.474048732,1.342164,0.671082,0,15.5,-1,-1.2,0,1,1086,1024,1024,1024,9,0,0,0,335.5,0,0,25,3.589,3.565,0,0,0,0,4.65,95.36,179.6682095,3.608924,6,P-GPS,
55700,4/21/25 22:23,4/22/25 5:23,34.01983772,-118.2899704,3.608924,,,179.6682095,3.937008,1.4987498,5.777493623,9.929166984,13,4,7.154,179.6682095,3.608924,1.8342908,5.777493623,1.342164,0.671082,0,15.7,-0.7,-1.7,0,1,1056,1024,1024,1024,5,0,0,0,335.5,0,0,25,3.589,3.565,0,0,0,0,4.65,95.36,179.6682095,3.608924,6,P-GPS,
55800,4/21/25 22:23,4/22/25 5:23,34.01983842,-118.2899699,3.608924,,,179.6682095,3.937008,1.7000744,6.074836152,10.22700164,13,4,7.154,179.6682095,3.608924,1.8342908,6.074836152,1.565858,0.671082,0,15.7,-0.1,-1.1,0,1,1024,1024,1024,1024,0,0,0,0,335.5,0,0,25,3.589,3.565,0,0,0,0,4.65,95.36,179.6682095,3.608924,6,P-GPS,
55900,4/21/25 22:23,4/22/25 5:23,34.01984014,-118.2899686,3.28084,,,179.3401255,3.937008,1.6329662,6.814534339,10.96715914,13,4,7.154,179.6682095,3.608924,1.8342908,6.814534339,1.565858,0.447388,0,15.6,1,-1.2,0,1,1024,1024,1024,1024,0,0,0,0,335.5,0,0,25,3.589,3.565,0,0,0,0,4.65,95.36,179.3401255,3.28084,6,P-GPS,
56000,4/21/25 22:23,4/22/25 5:23,34.01984063,-118.289968,3.28084,,,179.3401255,3.937008,1.6329662,7.073983166,11.23362897,14,4,7.154,179.6682095,3.608924,1.8342908,7.073983166,1.565858,0.447388,0,15.4,5.6,-1,0,1,1024,1024,1024,1024,0,0,0,0,335.5,0,0,25,3.589,3.565,0,0,0,0,4.65,95.36,179.3401255,3.28084,6,P-GPS,
56100,4/21/25 22:23,4/22/25 5:23,34.01984066,-118.2899675,3.28084,,,179.3401255,3.937008,1.4092722,7.156496292,11.3622379,14,4,7.154,179.6682095,3.608924,1.8342908,7.156496292,1.342164,0.447388,0,15.5,5.9,-1,0,1,1024,1024,1024,1024,0,0,0,0,335.5,0,0,25,3.589,3.565,0,0,0,0,4.65,95.36,179.3401255,3.28084,6,P-GPS,
56200,4/21/25 22:23,4/22/25 5:23,34.01984056,-118.2899671,3.28084,,,179.3401255,3.937008,0.9171454,7.201148524,11.49258567,14,4,7.145,179.6682095,3.608924,1.8342908,7.201148524,0.894776,0.223694,0,15.3,5,-1.6,0,1,1024,1024,1024,1024,0,0,0,0,335.5,0,0,25,3.582,3.561,0,0,0,0,4.684,95.36,179.3401255,3.28084,6,P-GPS,
56300,4/21/25 22:23,4/22/25 5:23,34.01983866,-118.2899677,3.28084,,,179.3401255,3.937008,0.7158208,6.552985774,12.20547939,14,4,7.145,179.6682095,3.608924,1.8342908,7.201148524,0.671082,0.223694,0,15.4,4.1,-1.6,0,1,1024,1024,1024,1024,0,0,0,0,335.5,0,0,25,3.582,3.561,0,0,0,0,4.684,95.36,179.3401255,3.28084,6,P-GPS,
56400,4/21/25 22:23,4/22/25 5:23,34.01983796,-118.2899677,3.28084,,,179.3401255,3.937008,0.223694,6.357742986,12.45971168,13,4,7.145,179.6682095,3.608924,1.8342908,7.201148524,0,0.223694,0,15.4,3.5,-2,0,1,1024,1024,1024,1024,0,0,0,0,335.5,0,0,25,3.582,3.561,0,0,0,0,4.684,95.36,179.3401255,3.28084,6,P-GPS,
56500,4/21/25 22:23,4/22/25 5:23,34.01983772,-118.2899674,3.28084,,,179.3401255,3.937008,0.223694,6.349540886,12.58543347,13,4,7.145,179.6682095,3.608924,1.8342908,7.201148524,0,0.223694,0,15.4,1.6,-2.2,0,1,1024,1024,1024,1024,0,0,0,0,335.5,0,0,25,3.582,3.561,0,0,0,0,4.684,95.36,179.3401255,3.28084,6,P-GPS,
56600,4/21/25 22:23,4/22/25 5:23,34.01983746,-118.2899671,3.28084,,,179.3401255,3.937008,0.4921268,6.344291542,12.71725762,13,4,7.145,179.6682095,3.608924,1.8342908,7.201148524,-0.447388,0.223694,0,15.4,0.9,-1.9,0,1,1024,1015,1024,1024,0,-1,0,0,335.5,0,0,25,3.582,3.561,0,0,0,0,4.684,95.36,179.3401255,3.28084,6,P-GPS,
56700,4/21/25 22:23,4/22/25 5:23,34.01983846,-118.2899663,3.28084,,,179.3401255,3.937008,0.3131716,6.774672133,13.15282194,13,4,7.145,179.6682095,3.608924,1.8342908,7.201148524,-0.223694,0.223694,0,15.4,-1,-2.4,0,1,1024,840,1024,1024,0,-28,0,0,335.5,0,0,25,3.582,3.561,0,0,0,0,4.684,95.36,179.3401255,3.28084,6,P-GPS,
56800,4/21/25 22:23,4/22/25 5:23,34.01983835,-118.289966,3.28084,,,179.3401255,3.937008,0.223694,6.794291556,13.23809097,12,4,7.145,179.6682095,3.608924,1.8342908,7.201148524,0,0.223694,0,15.3,-1.4,-2.7,0,1,1024,745,1024,1024,0,-42,0,0,335.5,0,0,25,3.582,3.561,0,0,0,0,4.684,95.36,179.3401255,3.28084,6,P-GPS,
56900,4/21/25 22:23,4/22/25 5:23,34.01983842,-118.289966,3.28084,,,179.3401255,3.937008,0.223694,6.823556649,13.2682747,12,4,7.145,179.6682095,3.608924,1.8342908,7.201148524,0,0.223694,0,15.2,-1.3,-4.7,0,1,1024,750,1024,1024,0,-42,0,0,335.5,0,0,25,3.582,3.561,0,0,0,0,4.684,95.36,179.3401255,3.28084,6,P-GPS,
57000,4/21/25 22:23,4/22/25 5:23,34.01983852,-118.289966,3.28084,,,179.3401255,3.937008,0,6.8487535,13.30406867,13,4,7.145,179.6682095,3.608924,1.8342908,7.201148524,0,0,0,15,-0.9,-7.1,0,1,1024,775,1024,1024,0,-38,0,0,335.5,0,0,25,3.582,3.561,0,0,0,0,4.684,95.36,179.3401255,3.28084,6,P-GPS,
57100,4/21/25 22:23,4/22/25 5:23,34.01983999,-118.2899666,3.28084,,,179.3401255,3.937008,0.223694,7.133661646,13.87647682,13,4,7.145,179.6682095,3.608924,1.8342908,7.201148524,0.223694,0,0,15,-0.6,-7.2,0,1,1024,812,1024,1024,0,-32,0,0,335.5,0,0,25,3.582,3.561,0,0,0,0,4.684,95.36,179.3401255,3.28084,6,P-GPS,
57200,4/21/25 22:23,4/22/25 5:23,34.01984037,-118.2899668,3.28084,,,179.3401255,3.937008,0.9171454,7.198327002,14.03257919,14,4,7.142,179.6682095,3.608924,1.8342908,7.201148524,0.894776,-0.223694,0,15.1,0,-5.9,0,1,1024,812,1024,1024,0,-32,0,0,335.5,0,0,25,3.584,3.557,0,0,0,0,4.698,95.36,179.3401255,3.28084,6,P-GPS,
57300,4/21/25 22:23,4/22/25 5:23,34.01984082,-118.2899671,3.28084,,,179.3401255,3.937008,1.1408394,7.282939866,14.21551883,14,4,7.142,179.6682095,3.608924,1.8342908,7.282939866,1.11847,-0.223694,0,15,1.2,-4.7,0,1,1024,860,1024,1024,0,-25,0,0,335.5,0,0,25,3.584,3.557,0,0,0,0,4.698,95.36,179.3401255,3.28084,6,P-GPS,
57400,4/21/25 22:23,4/22/25 5:23,34.01984128,-118.2899675,3.28084,,,179.3401255,3.937008,1.2079476,7.35974433,14.41174587,15,4,7.142,179.6682095,3.608924,1.8342908,7.35974433,1.11847,-0.447388,0,15,1.7,-3.3,0,1,1024,913,1024,1024,0,-17,0,0,335.5,0,0,25,3.584,3.557,0,0,0,0,4.698,95.36,179.3401255,3.28084,6,P-GPS,
57500,4/21/25 22:23,4/22/25 5:23,34.01984177,-118.2899677,3.28084,,,179.3401255,3.937008,1.2079476,7.459088165,14.60800572,15,4,7.142,179.6682095,3.608924,1.8342908,7.459088165,1.11847,-0.447388,0,15.1,2.1,-2.3,0,1,1024,916,1024,1024,0,-16,0,0,335.5,0,0,25,3.584,3.557,0,0,0,0,4.698,95.36,179.3401255,3.28084,6,P-GPS,
57600,4/21/25 22:23,4/22/25 5:23,34.01984327,-118.2899679,3.28084,,,179.3401255,3.937008,1.006623,7.893208914,15.16049917,13,4,7.142,179.6682095,3.608924,1.8342908,7.893208914,0.894776,-0.447388,0,15.1,2.1,-1.7,0,1,1024,937,1024,1024,0,-13,0,0,335.5,0,0,25,3.584,3.557,0,0,0,0,4.698,95.36,179.3401255,3.28084,6,P-GPS,
57700,4/21/25 22:23,4/22/25 5:23,34.01984346,-118.2899683,3.28084,,,179.3401255,3.937008,0.8052984,7.889271906,15.30544668,13,4,7.142,179.6682095,3.608924,1.8342908,7.893208914,0.671082,-0.447388,0,15,1.4,-1.8,0,1,1024,929,1024,1024,0,-14,0,0,335.5,0,0,25,3.584,3.557,0,0,0,0,4.698,95.36,179.3401255,3.28084,6,P-GPS,
57800,4/21/25 22:23,4/22/25 5:23,34.01984361,-118.2899688,3.28084,,,179.3401255,3.937008,0.6263432,7.868668231,15.4547249,14,4,7.142,179.6682095,3.608924,1.8342908,7.893208914,0.447388,-0.447388,0,15,1.5,-1.7,0,1,1024,898,1024,1024,0,-19,0,0,335.5,0,0,25,3.584,3.557,0,0,0,0,4.698,95.36,179.3401255,3.28084,6,P-GPS,
57900,4/21/25 22:23,4/22/25 5:23,34.01984327,-118.2899693,3.28084,,,179.3401255,3.937008,0.4921268,7.683760088,15.65639814,14,4,7.142,179.6682095,3.608924,1.8342908,7.893208914,0.223694,-0.447388,0,15,0.8,-1.9,0,1,1024,834,1024,1024,0,-29,0,0,335.5,0,0,25,3.584,3.557,0,0,0,0,4.698,95.36,179.3401255,3.28084,6,P-GPS,
58000,4/21/25 22:23,4/22/25 5:23,34.01984216,-118.2899702,3.28084,,,179.3401255,3.937008,0.671082,7.205905742,16.13595852,16,4,7.142,179.6682095,3.608924,1.8342908,7.893208914,0,-0.671082,0,15.1,0.7,-2.5,0,1,1024,834,1024,1024,0,-29,0,0,335.5,0,0,25,3.584,3.557,0,0,0,0,4.698,95.36,179.3401255,3.28084,6,P-GPS,
58100,4/21/25 22:23,4/22/25 5:23,34.01984196,-118.2899707,3.28084,,,179.3401255,3.937008,0.671082,7.064632772,16.31374724,16,4,7.142,179.6682095,3.608924,1.8342908,7.893208914,0,-0.671082,0,15.1,-0.1,-3.3,0,1,1024,818,1024,1024,0,-31,0,0,335.5,0,0,25,3.584,3.557,0,0,0,0,4.698,95.36,179.3401255,3.28084,6,P-GPS,
58200,4/21/25 22:23,4/22/25 5:23,34.01984176,-118.2899713,3.28084,,,179.3401255,3.937008,1.1408394,6.921161639,16.50643097,17,4,7.142,179.6682095,3.608924,1.8342908,7.893208914,-0.223694,-1.11847,0,15,-0.5,-3.5,0,1,1024,837,1024,1024,0,-28,0,0,335.5,0,0,25,3.584,3.557,0,0,0,0,4.698,95.36,179.3401255,3.28084,6,P-GPS,
58300,4/21/25 22:23,4/22/25 5:23,34.01984196,-118.2899719,3.28084,,,179.3401255,3.937008,1.11847,6.912172137,16.69658846,17,4,7.129,179.6682095,3.608924,1.8342908,7.893208914,0,-1.11847,0,15.1,-1.4,-2.7,0,1,1024,1024,1024,1024,0,0,0,0,335.5,0,0,25,3.575,3.549,0,0,0,0,4.814,95.54,179.3401255,3.28084,6,P-GPS,
58400,4/21/25 22:23,4/22/25 5:23,34.01984266,-118.2899726,3.28084,,,179.3401255,3.608924,1.006623,7.071424111,17.02276957,15,4,7.129,179.6682095,3.608924,1.8342908,7.893208914,0.447388,-0.894776,0,15.1,-1.2,-2.3,0,1,1024,1024,1024,1024,0,0,0,0,335.5,0,0,25,3.575,3.549,0,0,0,0,4.814,95.54,179.3401255,3.28084,6,P-GPS,
58500,4/21/25 22:23,4/22/25 5:23,34.01984376,-118.2899728,3.28084,,,179.3401255,3.608924,1.006623,7.413451681,17.43307142,15,4,7.129,179.6682095,3.608924,1.8342908,7.893208914,0.447388,-0.894776,0,15.1,0.6,1.7,0,1,1024,1024,1024,1024,0,0,0,0,335.5,0,0,25,3.575,3.549,0,0,0,0,4.814,95.54,179.3401255,3.28084,6,P-GPS,
58600,4/21/25 22:23,4/22/25 5:23,34.01984495,-118.2899731,3.28084,,,179.3401255,3.608924,0.671082,7.796522559,17.87349139,13,4,7.129,179.6682095,3.608924,1.8342908,7.893208914,0,-0.671082,0,15.1,0.3,3.4,0,1,1024,1024,1024,1024,0,0,0,0,335.5,0,0,25,3.575,3.549,0,0,0,0,4.814,95.54,179.3401255,3.28084,6,P-GPS,
58700,4/21/25 22:23,4/22/25 5:23,34.01984554,-118.2899737,3.28084,,,179.3401255,3.608924,0.4921268,7.95193595,18.14885229,13,4,7.129,179.6682095,3.608924,1.8342908,7.95193595,-0.223694,-0.447388,0,15,-0.2,3,0,1,1024,1024,1024,1024,0,0,0,0,335.5,0,0,25,3.575,3.549,0,0,0,0,4.814,95.54,179.3401255,3.28084,6,P-GPS,
58800,4/21/25 22:23,4/22/25 5:23,34.01984738,-118.2899745,3.28084,,,179.3401255,3.608924,0.4921268,8.528182688,18.86610953,14,4,7.129,179.6682095,3.608924,1.8342908,8.528182688,-0.671082,-0.447388,0,15,-1,2,0,1,1024,1024,1024,1024,0,0,0,0,335.5,0,0,25,3.575,3.549,0,0,0,0,4.814,95.54,179.3401255,3.28084,6,P-GPS,
58900,4/21/25 22:23,4/22/25 5:23,34.01984767,-118.289975,3.28084,,,179.3401255,3.608924,0.9171454,8.596752244,19.05321583,14,4,7.129,179.6682095,3.608924,1.8342908,8.596752244,-0.894776,-0.223694,0,15,-2.2,1.3,0,1,1024,1024,1024,1024,0,0,0,0,335.5,0,0,25,3.575,3.549,0,0,0,0,4.814,95.54,179.3401255,3.28084,6,P-GPS,
59000,4/21/25 22:23,4/22/25 5:23,34.01984799,-118.2899755,3.28084,,,179.3401255,3.608924,0.9171454,8.682382168,19.23992844,15,4,7.129,179.6682095,3.608924,1.8342908,8.682382168,-0.894776,-0.223694,0,15,-2.9,0.5,0,1,1024,1024,1024,1024,0,0,0,0,335.5,0,0,25,3.575,3.549,0,0,0,0,4.814,95.54,179.3401255,3.28084,6,P-GPS,
59100,4/21/25 22:23,4/22/25 5:23,34.01984807,-118.289976,3.28084,,,179.3401255,3.608924,0.894776,8.683858546,19.38107017,15,4,7.129,179.6682095,3.608924,1.8342908,8.683858546,-0.894776,0,0,15,-3,-0.1,0,1,1024,1024,1024,1024,0,0,0,0,335.5,0,0,25,3.575,3.549,0,0,0,0,4.814,95.54,179.3401255,3.28084,6,P-GPS,
59200,4/21/25 22:23,4/22/25 5:23,34.01984819,-118.2899764,3.28084,,,179.3401255,3.608924,0.894776,8.699901853,19.5272644,12,4,7.129,179.6682095,3.608924,1.8342908,8.699901853,-0.894776,0,0,14.9,-3.3,-0.7,0,1,1024,1024,1024,1024,0,0,0,0,335.5,0,0,25,3.575,3.549,0,0,0,0,4.814,95.54,179.3401255,3.28084,6,P-GPS,
59300,4/21/25 22:23,4/22/25 5:23,34.01984613,-118.2899776,3.28084,,,179.3401255,3.608924,1.1408394,7.901804715,20.36200853,12,4,7.119,179.6682095,3.608924,1.8342908,8.699901853,-1.11847,-0.223694,0,14.9,-4,-0.2,0,1,1024,1024,1024,1024,0,0,0,0,335.5,0,0,25,3.573,3.546,0,0,0,0,4.864,95.54,179.3401255,3.28084,6,P-GPS,
59400,4/21/25 22:23,4/22/25 5:23,34.01984593,-118.2899782,3.28084,,,179.3401255,3.608924,1.1408394,7.806824397,20.55482349,14,4,7.119,179.6682095,3.608924,1.8342908,8.699901853,-1.11847,-0.223694,0,14.9,-5.6,-0.2,0,1,1024,1024,1024,1024,0,0,0,0,335.5,0,0,25,3.573,3.546,0,0,0,0,4.864,95.54,179.3401255,3.28084,6,P-GPS,
59500,4/21/25 22:23,4/22/25 5:23,34.01984536,-118.2899788,3.28084,,,179.3401255,3.608924,1.1408394,7.581627539,20.82024345,14,4,7.119,179.6682095,3.608924,1.8342908,8.699901853,-1.11847,-0.223694,0,14.8,-6.6,0.2,0,1,1024,1024,1024,1024,0,0,0,0,335.5,0,0,25,3.573,3.546,0,0,0,0,4.864,95.54,179.3401255,3.28084,6,P-GPS,
59600,4/21/25 22:23,4/22/25 5:23,34.01984488,-118.2899793,3.28084,,,179.3401255,3.608924,0.9171454,7.39255273,21.05866209,16,4,7.119,179.6682095,3.608924,1.8342908,8.699901853,-0.894776,-0.223694,0,14.8,-7,0.6,0,1,1024,1024,1024,1024,0,0,0,0,335.5,0,0,25,3.573,3.546,0,0,0,0,4.864,95.54,179.3401255,3.28084,6,P-GPS,
59700,4/21/25 22:23,4/22/25 5:23,34.01984236,-118.2899799,3.28084,,,179.3401255,3.608924,0.9171454,6.461581572,21.99744165,16,4,7.119,179.6682095,3.608924,1.8342908,8.699901853,-0.894776,-0.223694,0,14.8,-9.3,0.9,0,1,1024,1024,1024,1024,0,0,0,0,335.5,0,0,25,3.573,3.546,0,0,0,0,4.864,95.54,179.3401255,3.28084,6,P-GPS,
59800,4/21/25 22:23,4/22/25 5:23,34.01984214,-118.2899803,3.28084,,,179.3401255,3.608924,0.447388,6.374737737,22.13595871,14,4,7.119,179.6682095,3.608924,1.8342908,8.699901853,-0.447388,0,0,14.7,-8.8,0.8,0,1,1024,1024,1024,1024,0,0,0,0,335.5,0,0,25,3.573,3.546,0,0,0,0,4.864,95.54,179.3401255,3.28084,6,P-GPS,
59900,4/21/25 22:23,4/22/25 5:23,34.01984186,-118.2899807,3.28084,,,179.3401255,3.608924,0.223694,6.2703086,22.30183798,14,4,7.119,179.6682095,3.608924,1.8342908,8.699901853,-0.223694,0,0,14.7,-7.8,0.4,0,1,1024,1024,1024,1024,0,0,0,0,335.5,0,0,25,3.573,3.546,0,0,0,0,4.864,95.54,179.3401255,3.28084,6,P-GPS,
60000,4/21/25 22:23,4/22/25 5:23,34.01984171,-118.2899812,3.28084,,,179.3401255,3.608924,0.223694,6.210925396,22.44238917,14,4,7.119,179.6682095,3.608924,1.8342908,8.699901853,-0.223694,0,0,14.7,-7,0.1,0,1,1024,1024,1024,1024,0,0,0,0,335.5,0,0,25,3.573,3.546,0,0,0,0,4.864,95.54,179.3401255,3.28084,6,P-GPS,
60100,4/21/25 22:23,4/22/25 5:23,34.01984104,-118.289981,3.28084,,,179.3401255,3.608924,0,5.967782343,22.68953485,14,4,7.119,179.6682095,3.608924,1.8342908,8.699901853,0,0,0,14.7,-6.8,-0.1,0,1,1024,1024,1024,1024,0,0,0,0,335.5,0,0,25,3.573,3.546,0,0,0,0,4.864,95.54,179.3401255,3.28084,6,P-GPS,
60200,4/21/25 22:23,4/22/25 5:23,34.01984143,-118.289981,3.28084,,,179.3401255,3.608924,0,6.111778411,22.83356372,15,4,7.119,179.6682095,3.608924,1.8342908,8.699901853,0,0,0,14.8,-7.4,-0.4,0,1,1024,1024,1024,1024,0,0,0,0,335.5,0,0,25,3.573,3.546,0,0,0,0,4.864,95.54,179.3401255,3.28084,6,P-GPS,
60300,4/21/25 22:23,4/22/25 5:23,34.01984174,-118.2899808,3.28084,,,179.3401255,3.608924,0,6.22601726,22.96128682,15,4,7.117,179.6682095,3.608924,1.8342908,8.699901853,0,0,0,14.8,-6.4,-0.2,0,1,1024,1024,1024,1024,0,0,0,0,335.5,0,0,25,3.568,3.544,0,0,0,0,4.868,95.54,179.3401255,3.28084,6,P-GPS,
60400,4/21/25 22:23,4/22/25 5:23,34.01984216,-118.2899806,3.28084,,,179.3401255,3.608924,0.223694,6.379987081,23.1279535,15,4,7.117,179.6682095,3.608924,1.8342908,8.699901853,0.223694,0,0,14.8,-5.3,-0.2,0,1,1024,1024,1024,1024,0,0,0,0,335.5,0,0,25,3.568,3.544,0,0,0,0,4.868,95.54,179.3401255,3.28084,6,P-GPS,
60500,4/21/25 22:23,4/22/25 5:23,34.01984246,-118.2899793,3.28084,,,179.3401255,3.608924,0.3131716,6.512565825,23.52490233,15,4,7.117,179.6682095,3.608924,1.8342908,8.699901853,0.223694,0.223694,0,14.9,-4.5,-0.1,0,1,1024,1024,1024,1024,0,0,0,0,335.5,0,0,25,3.568,3.544,0,0,0,0,4.868,95.54,179.3401255,3.28084,6,P-GPS,
60600,4/21/25 22:23,4/22/25 5:23,34.01984317,-118.289979,3.28084,,,179.3401255,3.608924,0.4921268,6.781594705,23.80397058,16,4,7.117,179.6682095,3.608924,1.8342908,8.699901853,0.447388,0.223694,0,14.9,-5.5,-0.7,0,1,1024,1024,1024,1024,0,0,0,0,335.5,0,0,25,3.568,3.544,0,0,0,0,4.868,95.54,179.3401255,3.28084,6,P-GPS,
60700,4/21/25 22:23,4/22/25 5:23,34.01984383,-118.2899786,3.28084,,,179.3401255,3.608924,0.4921268,7.031397863,24.06978423,16,4,7.117,179.6682095,3.608924,1.8342908,8.699901853,0.447388,0.223694,0,15,-4.7,-0.2,0,1,1024,1024,1024,1024,0,0,0,0,335.5,0,0,25,3.568,3.544,0,0,0,0,4.868,95.54,179.3401255,3.28084,6,P-GPS,
60800,4/21/25 22:23,4/22/25 5:23,34.01984458,-118.2899782,3.28084,,,179.3401255,3.608924,0.7158208,7.317880812,24.37034199,16,4,7.117,179.6682095,3.608924,1.8342908,8.699901853,0.671082,0.223694,0,15,-3.7,-0.3,0,1,1024,1024,1024,1024,0,0,0,0,335.5,0,0,25,3.568,3.544,0,0,0,0,4.868,95.54,179.3401255,3.28084,6,P-GPS,
60900,4/21/25 22:23,4/22/25 5:23,34.01984491,-118.2899778,3.28084,,,179.3401255,3.608924,0.7158208,7.453149845,24.53412152,16,4,7.117,179.6682095,3.608924,1.8342908,8.699901853,0.671082,0.223694,0,15,-3,-0.7,0,1,1024,866,1024,1024,0,-24,0,0,335.5,0,0,25,3.568,3.544,0,0,0,0,4.868,95.54,179.3401255,3.28084,6,P-GPS,
61000,4/21/25 22:23,4/22/25 5:23,34.01984435,-118.2899769,3.28084,,,179.3401255,3.608924,0.7158208,7.297539604,24.87900342,17,4,7.117,179.6682095,3.608924,1.8342908,8.699901853,0.671082,0.223694,0,15.1,-2.9,-0.8,0,1,1024,904,1024,1024,0,-18,0,0,335.5,0,0,25,3.568,3.544,0,0,0,0,4.868,95.54,179.3401255,3.28084,6,P-GPS,
61100,4/21/25 22:23,4/22/25 5:23,34.01984459,-118.2899765,3.28084,,,179.3401255,3.608924,0.4921268,7.409285014,25.04150343,17,4,7.117,179.6682095,3.608924,1.8342908,8.699901853,0.447388,0.223694,0,15.3,-2.2,-1.8,0,1,1024,967,1024,1024,0,-9,0,0,335.5,0,0,25,3.568,3.544,0,0,0,0,4.868,95.54,179.3401255,3.28084,6,P-GPS,
61200,4/21/25 22:23,4/22/25 5:23,34.01984487,-118.289976,3.28084,,,179.3401255,3.608924,0.4921268,7.536844073,25.21515829,17,4,7.117,179.6682095,3.608924,1.8342908,8.699901853,0.447388,0.223694,0,15.4,-1.9,-2.2,0,1,1024,967,1024,1024,0,-9,0,0,335.5,0,0,25,3.568,3.544,0,0,0,0,4.868,95.54,179.3401255,3.28084,6,P-GPS,
61300,4/21/25 22:23,4/22/25 5:23,34.01984489,-118.2899756,3.608924,,,179.6682095,3.937008,0.4921268,7.569061922,25.32877378,17,4,7.117,179.6682095,3.608924,1.8342908,8.699901853,0.447388,0.223694,0,15.5,-1.9,-1.8,0,1,1024,994,1024,1024,0,-5,0,0,335.5,0,0,25,3.571,3.546,0,0,0,0,4.842,95.54,179.6682095,3.608924,6,P-GPS,
61400,4/21/25 22:23,4/22/25 5:23,34.01984322,-118.2899749,3.608924,,,179.6682095,3.937008,0.4921268,7.035302062,25.97598508,16,4,7.117,179.6682095,3.608924,1.8342908,8.699901853,0.447388,0.223694,0,15.7,-2.3,-1.4,0,1,1024,1014,1024,1024,0,-2,0,0,335.5,0,0,25,3.571,3.546,0,0,0,0,4.842,95.54,179.6682095,3.608924,6,P-GPS,
61500,4/21/25 22:23,4/22/25 5:23,34.019843,-118.2899746,3.608924,,,179.6682095,3.937008,0.4921268,6.977952979,26.08766488,16,4,7.117,179.6682095,3.608924,1.8342908,8.699901853,0.447388,0.223694,0,15.7,-0.9,-0.5,0,1,1024,1024,1024,1024,0,0,0,0,335.5,0,0,25,3.571,3.546,0,0,0,0,4.842,95.54,179.6682095,3.608924,6,P-GPS,
61600,4/21/25 22:23,4/22/25 5:23,34.01984277,-118.2899744,3.608924,,,179.6682095,3.937008,0.3131716,6.922113082,26.20246147,14,4,7.117,179.6682095,3.608924,1.8342908,8.699901853,0.223694,0.223694,0,15.7,1.6,0,0,1,1024,1024,1024,1024,0,0,0,0,335.5,0,0,25,3.571,3.546,0,0,0,0,4.842,95.54,179.6682095,3.608924,6,P-GPS,
61700,4/21/25 22:23,4/22/25 5:23,34.01984246,-118.2899742,3.608924,,,179.6682095,3.937008,0.3131716,6.828084208,26.32188404,14,4,7.117,179.6682095,3.608924,1.8342908,8.699901853,0.223694,0.223694,0,15.9,2.3,-0.2,0,1,1024,1024,1024,1024,0,0,0,0,335.5,0,0,25,3.571,3.546,0,0,0,0,4.842,95.54,179.6682095,3.608924,6,P-GPS,
61800,4/21/25 22:23,4/22/25 5:23,34.01984028,-118.2899744,3.608924,,,179.6682095,3.937008,0.223694,6.054658986,27.12185126,14,4,7.117,179.6682095,3.608924,1.8342908,8.699901853,0,0.223694,0,16,2,-0.8,0,1,1024,1024,1024,1024,0,0,0,0,335.5,0,0,25,3.571,3.546,0,0,0,0,4.842,95.54,179.6682095,3.608924,6,P-GPS,
61900,4/21/25 22:23,4/22/25 5:23,34.01983988,-118.2899743,3.608924,,,179.6682095,3.937008,0.223694,5.93503956,27.27106386,14,4,7.117,179.6682095,3.608924,1.8342908,8.699901853,0,0.223694,0,16,1.4,-1.3,0,1,1024,1024,1024,1024,0,0,0,0,335.5,0,0,25,3.571,3.546,0,0,0,0,4.842,95.54,179.6682095,3.608924,6,P-GPS,
62000,4/21/25 22:23,4/22/25 5:23,34.01983949,-118.2899741,3.608924,,,179.6682095,3.937008,0.223694,5.816043493,27.42286833,14,4,7.117,179.6682095,3.608924,1.8342908,8.699901853,0,0.223694,0,16,0.6,-1.6,0,1,1024,1024,1024,1024,0,0,0,0,335.5,0,0,25,3.571,3.546,0,0,0,0,4.842,95.54,179.6682095,3.608924,6,P-GPS,
62100,4/21/25 22:23,4/22/25 5:23,34.01983896,-118.289974,3.608924,,,179.6682095,3.937008,0.3131716,5.657382071,27.6191938,14,4,7.117,179.6682095,3.608924,1.8342908,8.699901853,-0.223694,0.223694,0,16,0.3,-1.8,0,1,1024,1024,1024,1024,0,0,0,0,335.5,0,0,25,3.571,3.546,0,0,0,0,4.842,95.54,179.6682095,3.608924,6,P-GPS,
62200,4/21/25 22:23,4/22/25 5:23,34.01983745,-118.289974,3.608924,,,179.6682095,3.937008,0.3131716,5.146227199,28.17267151,14,4,7.117,179.6682095,3.608924,1.8342908,8.699901853,-0.223694,0.223694,0,16,0,-1.9,0,1,1024,1024,1024,1024,0,0,0,0,335.5,0,0,25,3.571,3.546,0,0,0,0,4.842,95.54,179.6682095,3.608924,6,P-GPS,
62300,4/21/25 22:23,4/22/25 5:23,34.01983701,-118.289974,3.608924,,,179.6682095,3.937008,0.3131716,5.014337431,28.33412164,14,4,7.114,179.6682095,3.608924,1.8342908,8.699901853,-0.223694,0.223694,0,16.1,-0.3,-1.9,0,1,1024,1024,1024,1024,0,0,0,0,335.5,0,0,25,3.561,3.535,0,0,0,0,4.713,95.72,179.6682095,3.608924,6,P-GPS,
62400,4/21/25 22:23,4/22/25 5:23,34.01983657,-118.2899739,3.608924,,,179.6682095,3.937008,0.3131716,4.883366298,28.49524369,14,4,7.114,179.6682095,3.608924,1.8342908,8.699901853,-0.223694,0.223694,0,16.1,-1,-2.5,0,1,1024,1024,1024,1024,0,0,0,0,335.5,0,0,25,3.561,3.535,0,0,0,0,4.713,95.72,179.6682095,3.608924,6,P-GPS,
62500,4/21/25 22:23,4/22/25 5:23,34.0198364,-118.2899738,3.608924,,,179.6682095,3.608924,0.3131716,4.834448974,28.55958097,14,4,7.114,179.6682095,3.608924,1.8342908,8.699901853,-0.223694,0.223694,0,16,-1.3,-2.8,0,1,1024,1024,1024,1024,0,0,0,0,335.5,0,0,25,3.561,3.535,0,0,0,0,4.713,95.72,179.6682095,3.608924,6,P-GPS,
62600,4/21/25 22:23,4/22/25 5:23,34.01983625,-118.2899738,3.608924,,,179.6682095,3.608924,0.223694,4.789632699,28.6155521,15,4,7.114,179.6682095,3.608924,1.8342908,8.699901853,-0.223694,0,0,16,-2,-3.1,0,1,1024,1024,1024,1024,0,0,0,0,335.5,0,0,25,3.561,3.535,0,0,0,0,4.713,95.72,179.6682095,3.608924,6,P-GPS,
62700,4/21/25 22:23,4/22/25 5:23,34.01983661,-118.2899739,3.608924,,,179.6682095,3.608924,0.223694,4.884645826,28.75301929,15,4,7.114,179.6682095,3.608924,1.8342908,8.699901853,-0.223694,0,0,16,-3.2,-3.9,0,1,1024,1024,1024,1024,0,0,0,0,335.5,0,0,25,3.561,3.535,0,0,0,0,4.713,95.72,179.6682095,3.608924,6,P-GPS,
62800,4/21/25 22:23,4/22/25 5:23,34.01983666,-118.2899739,3.608924,,,179.6682095,3.608924,0,4.902952913,28.77306523,15,4,7.114,179.6682095,3.608924,1.8342908,8.699901853,0,0,0,15.9,-2.8,-3.5,0,1,1024,1024,1024,1024,0,0,0,0,335.5,0,0,25,3.561,3.535,0,0,0,0,4.713,95.72,179.6682095,3.608924,6,P-GPS,
62900,4/21/25 22:23,4/22/25 5:23,34.01983698,-118.2899738,3.608924,,,179.6682095,3.608924,0,5.029363678,28.89983688,15,4,7.114,179.6682095,3.608924,1.8342908,8.699901853,0,0,0,15.9,-2.5,-3.1,0,1,1024,1024,1024,1024,0,0,0,0,335.5,0,0,25,3.561,3.535,0,0,0,0,4.713,95.72,179.6682095,3.608924,6,P-GPS,
63000,4/21/25 22:23,4/22/25 5:23,34.01983736,-118.2899736,3.608924,,,179.6682095,3.608924,0,5.172966045,29.04511248,13,4,7.114,179.6682095,3.608924,1.8342908,8.699901853,0,0,0,15.9,-2.2,-2.5,0,1,1024,1024,1024,1024,0,0,0,0,335.5,0,0,25,3.561,3.535,0,0,0,0,4.713,95.72,179.6682095,3.608924,6,P-GPS,
63100,4/21/25 22:23,4/22/25 5:23,34.01983827,-118.2899735,3.608924,,,179.6682095,3.608924,0,5.482808574,29.3771991,13,4,7.114,179.6682095,3.608924,1.8342908,8.699901853,0,0,0,15.8,-2.3,-2.7,0,1,1024,1024,1024,1024,0,0,0,0,335.5,0,0,25,3.561,3.535,0,0,0,0,4.713,95.72,179.6682095,3.608924,6,P-GPS,
63200,4/21/25 22:23,4/22/25 5:23,34.01983858,-118.2899736,3.608924,,,179.6682095,3.608924,0,5.573392567,29.49491564,13,4,7.114,179.6682095,3.608924,1.8342908,8.699901853,0,0,0,16,-2,-2.6,0,1,1024,1024,1024,1024,0,0,0,0,335.5,0,0,25,3.561,3.535,0,0,0,0,4.713,95.72,179.6682095,3.608924,6,P-GPS,
63300,4/21/25 22:23,4/22/25 5:23,34.01983882,-118.2899738,3.608924,,,179.6682095,3.608924,0,5.632447687,29.59229097,13,4,7.114,179.6682095,3.608924,1.8342908,8.699901853,0,0,0,16,-1.6,-2.2,0,1,1024,1024,1024,1024,0,0,0,0,335.5,0,0,25,3.561,3.535,0,0,0,0,4.713,95.72,179.6682095,3.608924,6,P-GPS,
63400,4/21/25 22:23,4/22/25 5:23,34.01983907,-118.289974,3.608924,,,179.6682095,3.608924,0,5.698031678,29.69927917,14,4,7.09,179.6682095,3.608924,1.8342908,8.699901853,0,0,0,16.1,-1.6,-1.7,0,1,1024,1024,1024,1024,0,0,0,0,335.5,0,0,24,3.563,3.536,0,0,0,0,4.982,95.72,179.6682095,3.608924,6,P-GPS,
63500,4/21/25 22:23,4/22/25 5:23,34.01983885,-118.2899744,3.608924,,,179.6682095,3.608924,0,5.576706215,29.84639203,14,4,7.09,179.6682095,3.608924,1.8342908,8.699901853,0,0,0,16.2,-2,-1.7,0,1,1024,1024,1024,1024,0,0,0,0,335.5,0,0,24,3.563,3.536,0,0,0,0,4.982,95.72,179.6682095,3.608924,6,P-GPS,
63600,4/21/25 22:23,4/22/25 5:23,34.01983903,-118.2899745,3.608924,,,179.6682095,3.608924,0,5.61515766,29.93011907,13,4,7.09,179.6682095,3.608924,1.8342908,8.699901853,0,0,0,16.2,-2.5,-1.9,0,1,1024,1024,1024,1024,0,0,0,0,335.5,0,0,24,3.563,3.536,0,0,0,0,4.982,95.72,179.6682095,3.608924,6,P-GPS,
63700,4/21/25 22:23,4/22/25 5:23,34.01983894,-118.2899748,3.608924,,,179.6682095,3.608924,0,5.562532986,30.00380673,13,4,7.09,179.6682095,3.608924,1.8342908,8.699901853,0,0,0,16.2,-2.3,-1.7,0,1,1024,1018,1024,1024,0,-1,0,0,335.5,0,0,24,3.563,3.536,0,0,0,0,4.982,95.72,179.6682095,3.608924,6,P-GPS,
63800,4/21/25 22:23,4/22/25 5:23,34.01983889,-118.289975,3.608924,,,179.6682095,3.608924,0,5.520046108,30.076707,13,4,7.09,179.6682095,3.608924,1.8342908,8.699901853,0,0,0,16.2,-2.1,-1.9,0,1,1024,997,1024,1024,0,-4,0,0,335.5,0,0,24,3.563,3.536,0,0,0,0,4.982,95.72,179.6682095,3.608924,6,P-GPS,
63900,4/21/25 22:23,4/22/25 5:23,34.01983807,-118.2899751,3.608924,,,179.6682095,3.608924,0,5.231266572,30.37536186,13,4,7.09,179.6682095,3.608924,1.8342908,8.699901853,0,0,0,16.2,-1.6,-1.5,0,1,1024,1012,1024,1024,0,-2,0,0,335.5,0,0,24,3.563,3.536,0,0,0,0,4.982,95.72,179.6682095,3.608924,6,P-GPS,
64000,4/21/25 22:23,4/22/25 5:23,34.01983819,-118.2899752,3.608924,,,179.6682095,3.608924,0,5.259252137,30.42605084,13,4,7.09,179.6682095,3.608924,1.8342908,8.699901853,0,0,0,16.1,-1.3,-1.5,0,1,1024,1011,1024,1024,0,-2,0,0,335.5,0,0,24,3.563,3.536,0,0,0,0,4.982,95.72,179.6682095,3.608924,6,P-GPS,
64100,4/21/25 22:23,4/22/25 5:23,34.0198382,-118.2899752,3.608924,,,179.6682095,3.608924,0,5.259711454,30.43418733,13,4,7.09,179.6682095,3.608924,1.8342908,8.699901853,0,0,0,16,0.1,-0.9,0,1,1024,977,1024,1024,0,-7,0,0,335.5,0,0,24,3.563,3.536,0,0,0,0,4.982,95.72,179.6682095,3.608924,6,P-GPS,
64200,4/21/25 22:23,4/22/25 5:23,34.01983821,-118.2899753,3.608924,,,179.6682095,3.608924,0,5.263189145,30.44514533,13,4,7.09,179.6682095,3.608924,1.8342908,8.699901853,0,0,0,16.1,0.6,-0.4,0,1,1024,823,1024,1024,0,-30,0,0,335.5,0,0,24,3.563,3.536,0,0,0,0,4.982,95.72,179.6682095,3.608924,6,P-GPS,
64300,4/21/25 22:23,4/22/25 5:23,34.01983819,-118.2899752,3.608924,,,179.6682095,3.608924,0,5.265059224,30.4747057,13,4,7.09,179.6682095,3.608924,1.8342908,8.699901853,0,0,0,16.1,0,-0.9,0,1,1024,823,1024,1024,0,-30,0,0,335.5,0,0,24,3.563,3.536,0,0,0,0,4.982,95.72,179.6682095,3.608924,6,P-GPS,
64400,4/21/25 22:23,4/22/25 5:23,34.01983757,-118.2899746,3.608924,,,179.6682095,3.608924,0,5.117060531,30.75941699,13,4,7.1,179.6682095,3.608924,1.8342908,8.699901853,0,0,0,16.1,-0.1,-2.1,0,1,1024,752,1024,1024,0,-41,0,0,335.5,0,0,24,3.565,3.538,0,0,0,0,4.831,95.9,179.6682095,3.608924,6,P-GPS,
64500,4/21/25 22:23,4/22/25 5:23,34.01983745,-118.2899745,3.28084,,,179.3401255,3.608924,0,5.089796751,30.8129275,13,4,7.1,179.6682095,3.608924,1.8342908,8.699901853,0,0,0,16.2,-0.4,-4.5,0,1,1024,752,1024,1024,0,-41,0,0,335.5,0,0,24,3.565,3.538,0,0,0,0,4.831,95.9,179.3401255,3.28084,6,P-GPS,
64600,4/21/25 22:23,4/22/25 5:23,34.01983735,-118.2899744,3.28084,,,179.3401255,3.608924,0.223694,5.063057905,30.852396,13,4,7.1,179.6682095,3.608924,1.8342908,8.699901853,0,-0.223694,0,16.1,-0.4,-5.8,0,1,1024,772,1024,1024,0,-38,0,0,335.5,0,0,24,3.565,3.538,0,0,0,0,4.831,95.9,179.3401255,3.28084,6,P-GPS,
64700,4/21/25 22:23,4/22/25 5:23,34.01983728,-118.2899744,3.28084,,,179.3401255,3.608924,0.223694,5.040846618,30.87844587,13,4,7.1,179.6682095,3.608924,1.8342908,8.699901853,0,-0.223694,0,16.2,-0.6,-5.6,0,1,1024,783,1024,1024,0,-37,0,0,335.5,0,0,24,3.565,3.538,0,0,0,0,4.831,95.9,179.3401255,3.28084,6,P-GPS,
64800,4/21/25 22:23,4/22/25 5:23,34.0198367,-118.2899741,3.28084,,,179.3401255,3.608924,0.447388,4.896588083,31.11256661,13,4,7.1,179.6682095,3.608924,1.8342908,8.699901853,0,-0.447388,0,16.3,-0.5,-5,0,1,1024,790,1024,1024,0,-35,0,0,335.5,0,0,24,3.565,3.538,0,0,0,0,4.831,95.9,179.3401255,3.28084,6,P-GPS,
64900,4/21/25 22:23,4/22/25 5:23,34.01983666,-118.2899742,3.28084,,,179.3401255,3.608924,0.447388,4.865551337,31.15636583,13,4,7.1,179.6682095,3.608924,1.8342908,8.699901853,0,-0.671082,0,16.2,-0.4,-4.6,0,1,1024,794,1024,1024,0,-35,0,0,335.5,0,0,24,3.565,3.538,0,0,0,0,4.831,95.9,179.3401255,3.28084,6,P-GPS,
65000,4/21/25 22:23,4/22/25 5:23,34.01983665,-118.2899744,3.28084,,,179.3401255,3.608924,0.671082,4.834711441,31.21729103,12,4,7.1,179.6682095,3.608924,1.8342908,8.699901853,0,-0.671082,0,16.3,-0.8,-4.6,0,1,1024,798,1024,1024,0,-34,0,0,335.5,0,0,24,3.565,3.538,0,0,0,0,4.831,95.9,179.3401255,3.28084,6,P-GPS,
65100,4/21/25 22:23,4/22/25 5:23,34.01983681,-118.2899748,3.28084,,,179.3401255,3.608924,0.894776,4.83287417,31.35646426,12,4,7.1,179.6682095,3.608924,1.8342908,8.699901853,0,-0.894776,0,16.2,-0.7,-4.6,0,1,1024,808,1024,1024,0,-33,0,0,335.5,0,0,24,3.565,3.538,0,0,0,0,4.831,95.9,179.3401255,3.28084,6,P-GPS,
65200,4/21/25 22:23,4/22/25 5:23,34.01983694,-118.2899754,3.28084,,,179.3401255,3.608924,0.9171454,4.812401729,31.5327766,12,4,7.1,179.6682095,3.608924,1.8342908,8.699901853,0.223694,-0.894776,0,16,-1.2,-4.2,0,1,1024,808,1024,1024,0,-33,0,0,335.5,0,0,24,3.565,3.538,0,0,0,0,4.831,95.9,179.3401255,3.28084,6,P-GPS,
65300,4/21/25 22:23,4/22/25 5:23,34.0198373,-118.289976,3.28084,,,179.3401255,3.608924,0.9171454,4.87306446,31.7577438,12,4,7.1,179.6682095,3.608924,1.8342908,8.699901853,0.223694,-0.894776,0,16.2,-1.2,-4,0,1,1024,811,1024,1024,0,-32,0,0,335.5,0,0,24,3.565,3.538,0,0,0,0,4.831,95.9,179.3401255,3.28084,6,P-GPS,
65400,4/21/25 22:23,4/22/25 5:23,34.0198377,-118.2899767,3.28084,,,179.3401255,3.608924,1.1408394,4.951214069,32.00682517,11,4,7.1,179.6682095,3.608924,1.8342908,8.699901853,0.223694,-1.11847,0,16.2,-0.7,-3.6,0,1,1024,816,1024,1024,0,-32,0,0,335.5,0,0,24,3.56,3.532,0,0,0,0,4.831,95.9,179.3401255,3.28084,6,P-GPS,
65500,4/21/25 22:23,4/22/25 5:23,34.019838,-118.2899772,3.28084,,,179.3401255,3.608924,1.1408394,5.010925357,32.20695641,11,4,7.1,179.6682095,3.608924,1.8342908,8.699901853,0.223694,-1.11847,0,16.2,-0.7,-3.5,0,1,1024,836,1024,1024,0,-28,0,0,335.5,0,0,24,3.56,3.532,0,0,0,0,4.831,95.9,179.3401255,3.28084,6,P-GPS,
65600,4/21/25 22:23,4/22/25 5:23,34.0198383,-118.2899778,3.28084,,,179.3401255,3.608924,1.1408394,5.078674703,32.41427269,11,4,7.1,179.6682095,3.608924,1.8342908,8.699901853,0.223694,-1.11847,0,16.2,-0.9,-3.6,0,1,1024,887,1024,1024,0,-21,0,0,335.5,0,0,24,3.56,3.532,0,0,0,0,4.831,95.9,179.3401255,3.28084,6,P-GPS,
65700,4/21/25 22:23,4/22/25 5:23,34.019839,-118.2899787,3.28084,,,179.3401255,3.608924,1.1408394,5.279002794,32.79557192,11,4,7.1,179.6682095,3.608924,1.8342908,8.699901853,0.223694,-1.11847,0,16.3,-1,-3.3,0,1,1024,959,1024,1024,0,-10,0,0,335.5,0,0,24,3.56,3.532,0,0,0,0,4.831,95.9,179.3401255,3.28084,6,P-GPS,
65800,4/21/25 22:23,4/22/25 5:23,34.01983971,-118.2899797,3.28084,,,179.3401255,3.608924,1.3645334,5.502329572,33.1856966,12,4,7.1,179.6682095,3.608924,1.8342908,8.699901853,0.223694,-1.342164,0,16.3,-1.1,-2.4,0,1,1024,1024,1024,1024,0,0,0,0,335.5,0,0,24,3.56,3.532,0,0,0,0,4.831,95.9,179.3401255,3.28084,6,P-GPS,
65900,4/21/25 22:23,4/22/25 5:23,34.01984011,-118.2899804,3.28084,,,179.3401255,3.608924,1.3645334,5.633267897,33.44521104,12,4,7.1,179.6682095,3.608924,1.8342908,8.699901853,0.223694,-1.342164,0,16.3,-1.2,-0.9,0,1,1024,1024,1024,1024,0,0,0,0,335.5,0,0,24,3.56,3.532,0,0,0,0,4.831,95.9,179.3401255,3.28084,6,P-GPS,
