time(millisecond),datetime (pst),datetime(utc),latitude,longitude,height_above_takeoff(feet),height_above_ground_at_drone_location(feet),ground_elevation_at_drone_location(feet),altitude_above_seaLevel(feet),height_sonar(feet),speed(mph),distance(feet),mileage(feet),satellites,gpslevel,voltage(v),max_altitude(feet),max_ascent(feet),max_speed(mph),max_distance(feet), xSpeed(mph), ySpeed(mph), zSpeed(mph), compass_heading(degrees), pitch(degrees), roll(degrees),isPhoto,isVideo,rc_elevator,rc_aileron,rc_throttle,rc_rudder,rc_elevator(percent),rc_aileron(percent),rc_throttle(percent),rc_rudder(percent),gimbal_heading(degrees),gimbal_pitch(degrees),gimbal_roll(degrees),battery_percent,voltageCell1,voltageCell2,voltageCell3,voltageCell4,voltageCell5,voltageCell6,current(A),battery_temperature(f),altitude(feet),ascent(feet),flycStateRaw,flycState,message
0,4/28/25 22:42:04,4/29/25 5:42,0,0,0,Available with any HD 360 subscription,Available with any HD 360 subscription,3.28084E-5,0,0,0,0,0,0,0,3.28084E-5,0,0,0,0,0,0,137.1,1.4,2.7,0,1,1024,1024,1024,1024,0,0,0,0,137.2,0,0,86,4.164,4.16,0,0,0,0,0,90.68,3.28084E-5,0,41,Motors_Started,Setting new Return-To-Home altitude to 15m (49 ft). Data Recorder File Index is 39. Setting new Maximum Flight Altitude to 30m (98 ft)
100,4/28/25 22:42:04,4/29/25 5:42,0,0,0,,,3.28084E-5,0,0,0,0,0,0,0,3.28084E-5,0,0,0,0,0,0,137,1.3,2.6,0,1,1024,1024,1024,1024,0,0,0,0,137.2,0,0,86,4.164,4.16,0,0,0,0,0,90.68,3.28084E-5,0,41,Motors_Started,No satellite positioning. Fly with caution Satellite positioning signal weak. Hovering unstable. Fly with caution (Code: 30002)
200,4/28/25 22:42:05,4/29/25 5:42,0,0,0,,,3.28084E-5,0.328084,0,0,0,0,0,0,3.28084E-5,0,0,0,0,0,0,136.8,1.1,2.5,0,1,1024,1024,1024,1024,0,0,0,0,137.2,0,0,86,4.164,4.16,0,0,0,0,0,90.68,3.28084E-5,0,41,Motors_Started,Aircraft in Warning Zone (Airport). Fly with caution
300,4/28/25 22:42:05,4/29/25 5:42,0,0,0,,,3.28084E-5,0.328084,0,0,0,0,0,0,3.28084E-5,0,0,0,0,0,0,137,1.2,2.4,0,1,1024,1024,1024,1024,0,0,0,0,137.2,0,0,86,4.164,4.16,0,0,0,0,0,90.68,3.28084E-5,0,41,Motors_Started,
400,4/28/25 22:42:05,4/29/25 5:42,0,0,0,,,3.28084E-5,0.328084,0,0,0,0,0,0,3.28084E-5,0,0,0,0,0,0,137.1,1.5,2.5,0,1,1024,1024,1024,1024,0,0,0,0,137.2,0,0,86,4.164,4.16,0,0,0,0,0,90.68,3.28084E-5,0,41,Motors_Started,
500,4/28/25 22:42:05,4/29/25 5:42,0,0,0,,,3.28084E-5,0.328084,0,0,0,0,0,0,3.28084E-5,0,0,0,0,0,0,137.2,1.7,2.7,0,1,1024,1024,1024,1024,0,0,0,0,137.2,0,0,86,4.164,4.16,0,0,0,0,0,90.68,3.28084E-5,0,41,Motors_Started,
600,4/28/25 22:42:05,4/29/25 5:42,0,0,0,,,3.28084E-5,0.328084,0,0,0,0,0,0,3.28084E-5,0,0,0,0,0,0,137.3,1.9,2.7,0,1,1024,1024,1024,1024,0,0,0,0,137.2,0,0,86,4.164,4.16,0,0,0,0,0,90.68,3.28084E-5,0,41,Motors_Started,
700,4/28/25 22:42:05,4/29/25 5:42,0,0,0,,,3.28084E-5,0.328084,0,0,0,0,0,0,3.28084E-5,0,0,0,0,0,0,137.3,2,2.6,0,1,1024,1024,1024,1024,0,0,0,0,137.2,0,0,86,4.164,4.16,0,0,0,0,0,90.68,3.28084E-5,0,41,Motors_Started,
800,4/28/25 22:42:05,4/29/25 5:42,0,0,0,,,3.28084E-5,0.328084,0,0,0,0,0,0,3.28084E-5,0,0,0,0,0,0,137.4,2.2,2.7,0,1,1024,1024,1024,1024,0,0,0,0,137.2,0,0,86,4.164,4.16,0,0,0,0,0,90.68,3.28084E-5,0,41,Motors_Started,
900,4/28/25 22:42:05,4/29/25 5:42,0,0,0,,,3.28084E-5,0.328084,0,0,0,0,0,0,3.28084E-5,0,0,0,0,0,0,137.6,2.4,2.6,0,1,1024,1024,1024,1024,0,0,0,0,137.2,0,0,86,4.164,4.16,0,0,0,0,0,90.68,3.28084E-5,0,41,Motors_Started,
1000,4/28/25 22:42:05,4/29/25 5:42,0,0,0,,,3.28084E-5,0.328084,0,0,0,0,0,0,3.28084E-5,0,0,0,0,0,0,137.7,2.7,2.5,0,1,1024,1024,1024,1024,0,0,0,0,137.2,0,0,86,4.164,4.16,0,0,0,0,0,90.68,3.28084E-5,0,41,Motors_Started,
1100,4/28/25 22:42:05,4/29/25 5:42,0,0,0,,,3.28084E-5,0.328084,0,0,0,0,0,0,3.28084E-5,0,0,0,0,0,0,137.7,2.4,2.3,0,1,1024,1024,1024,1024,0,0,0,0,137.2,0,0,86,4.164,4.16,0,0,0,0,0,90.68,3.28084E-5,0,11,AutoTakeoff,
1200,4/28/25 22:42:06,4/29/25 5:42,0,0,0,,,3.28084E-5,0.328084,0,0,0,0,0,0,3.28084E-5,0,0,0,0,0,0,137.7,2.2,2.2,0,1,1024,1024,1024,1024,0,0,0,0,137.2,0,0,86,4.164,4.16,0,0,0,0,0,90.68,3.28084E-5,0,11,AutoTakeoff,
1300,4/28/25 22:42:06,4/29/25 5:42,0,0,0,,,3.28084E-5,0.328084,0,0,0,0,0,0,3.28084E-5,0,0,0,0,0,0,137.4,2.6,1.9,0,1,1024,1024,1024,1024,0,0,0,0,137.2,0,0,86,4.164,4.16,0,0,0,0,0,90.68,3.28084E-5,0,11,AutoTakeoff,
1400,4/28/25 22:42:06,4/29/25 5:42,0,0,0,,,3.28084E-5,0.328084,0,0,0,0,0,0,3.28084E-5,0,0,0,0,0,0,137.8,2.8,2,0,1,1024,1024,1024,1024,0,0,0,0,137.2,0,0,86,4.164,4.16,0,0,0,0,0,90.68,3.28084E-5,0,11,AutoTakeoff,
1500,4/28/25 22:42:06,4/29/25 5:42,0,0,0,,,3.28084E-5,0.328084,0,0,0,0,0,8.362,3.28084E-5,0,0,0,0,0,0,139.3,2.9,3,0,1,1024,1024,1024,1024,0,0,0,0,137.2,0,0,86,4.164,4.16,0,0,0,0,0.667,90.68,3.28084E-5,0,11,AutoTakeoff,
1600,4/28/25 22:42:06,4/29/25 5:42,0,0,0,,,3.28084E-5,0.328084,0,0,0,0,0,8.362,3.28084E-5,0,0,0,0,0,0,139.4,3.4,2.9,0,1,1024,1024,1024,1024,0,0,0,0,137.4,0,0,86,4.164,4.16,0,0,0,0,0.667,90.68,3.28084E-5,0,11,AutoTakeoff,
1700,4/28/25 22:42:06,4/29/25 5:42,0,0,0,,,3.28084E-5,0.328084,0,0,0,0,0,8.362,3.28084E-5,0,0,0,0,0,0,139.3,3.5,2.4,0,1,1024,1024,1024,1024,0,0,0,0,137.5,0,0,86,4.164,4.16,0,0,0,0,0.667,90.68,3.28084E-5,0,11,AutoTakeoff,
1800,4/28/25 22:42:06,4/29/25 5:42,0,0,0,,,3.28084E-5,0.328084,0,0,0,0,0,8.362,3.28084E-5,0,0,0,0,0,0,136.5,1.7,1.4,0,1,1024,1024,1024,1024,0,0,0,0,137.5,0,0,86,4.164,4.16,0,0,0,0,0.667,90.68,3.28084E-5,0,11,AutoTakeoff,
1900,4/28/25 22:42:06,4/29/25 5:42,0,0,0,,,3.28084E-5,0.328084,0,0,0,0,0,8.362,3.28084E-5,0,0,0,0,0,0,138,1.3,1.5,0,1,1024,1024,1024,1024,0,0,0,0,137.5,0,0,86,4.164,4.16,0,0,0,0,0.667,90.68,3.28084E-5,0,11,AutoTakeoff,
2000,4/28/25 22:42:06,4/29/25 5:42,0,0,0,,,3.28084E-5,0.328084,0,0,0,0,0,8.362,3.28084E-5,0,0,0,0,0,0,138.5,1,1.4,0,1,1024,1024,1024,1024,0,0,0,0,137.5,0,0,86,4.164,4.16,0,0,0,0,0.667,90.68,3.28084E-5,0,11,AutoTakeoff,
2100,4/28/25 22:42:06,4/29/25 5:42,0,0,0,,,3.28084E-5,0.328084,0,0,0,0,0,8.362,3.28084E-5,0,0,0,0,0,0,139.9,1,2.1,0,1,1024,1024,1024,1024,0,0,0,0,137.6,0,0,86,4.164,4.16,0,0,0,0,0.667,90.68,3.28084E-5,0,11,AutoTakeoff,
2200,4/28/25 22:42:07,4/29/25 5:42,0,0,0,,,3.28084E-5,0.328084,0,0,0,0,0,8.362,3.28084E-5,0,0,0,0,0,0,139.4,1.8,4.5,0,1,1024,1024,1024,1024,0,0,0,0,137.7,0,0,86,4.164,4.16,0,0,0,0,0.667,90.68,3.28084E-5,0,11,AutoTakeoff,
2300,4/28/25 22:42:07,4/29/25 5:42,0,0,0,,,3.28084E-5,0.328084,0,0,0,0,0,8.362,3.28084E-5,0,0,0,0,0,0,141.3,-0.8,8.3,0,1,1024,1024,1024,1024,0,0,0,0,137.9,0,0,86,4.164,4.16,0,0,0,0,0.667,90.68,3.28084E-5,0,11,AutoTakeoff,
2400,4/28/25 22:42:07,4/29/25 5:42,0,0,0,,,3.28084E-5,0.328084,0,0,0,0,0,8.362,3.28084E-5,0,0,0,0,0,0,143.1,-6.3,9.4,0,1,1024,1024,1024,1024,0,0,0,0,138.4,0,0,86,4.164,4.16,0,0,0,0,0.667,90.68,3.28084E-5,0,11,AutoTakeoff,
2500,4/28/25 22:42:07,4/29/25 5:42,0,0,0,,,3.28084E-5,0.328084,0,0,0,0,0,8.312,3.28084E-5,0,0,0,0,0,0,145.1,-5.8,3.7,0,1,1024,1024,1024,1024,0,0,0,0,139.3,0,0,86,4.141,4.129,0,0,0,0,1.602,90.68,3.28084E-5,0,11,AutoTakeoff,
2600,4/28/25 22:42:07,4/29/25 5:42,0,0,0,,,3.28084E-5,0.328084,0,0,0,0,0,8.312,3.28084E-5,0,0,0,0,0,0,146.4,-5.2,2.4,0,1,1024,1024,1024,1024,0,0,0,0,140.3,0,0,86,4.141,4.129,0,0,0,0,1.602,90.68,3.28084E-5,0,11,AutoTakeoff,
2700,4/28/25 22:42:07,4/29/25 5:42,0,0,0,,,3.28084E-5,0.328084,0,0,0,0,0,8.312,3.28084E-5,0,0,0,0,0,0,149.8,-19.9,1.2,0,1,1024,1024,1024,1024,0,0,0,0,141.7,0,0,86,4.141,4.129,0,0,0,0,1.602,90.68,3.28084E-5,0,11,AutoTakeoff,
2800,4/28/25 22:42:07,4/29/25 5:42,0,0,-0.328084,,,-0.328051192,0.328084,0,0,0,0,0,8.312,3.28084E-5,0,0,0,0,0,-0.223694,148.3,-9.8,2.6,0,1,1024,1024,1024,1024,0,0,0,0,143.1,0,0,86,4.141,4.129,0,0,0,0,1.602,90.68,-0.328051192,-0.328084,11,AutoTakeoff,
2900,4/28/25 22:42:07,4/29/25 5:42,0,0,-0.656168,,,-0.656135192,0.328084,0,0,0,0,0,8.312,3.28084E-5,0,0,0,0,0,-0.894776,146.8,9.1,-3.4,0,1,1024,1024,1024,1024,0,0,0,0,143.6,0,0,86,4.141,4.129,0,0,0,0,1.602,90.68,-0.656135192,-0.656168,11,AutoTakeoff,
3000,4/28/25 22:42:07,4/29/25 5:42,0,0,-0.328084,,,-0.328051192,0.656168,0,0,0,0,0,8.312,3.28084E-5,0,0,0,0,0,-1.11847,147,10,-2.4,0,1,1024,1024,1024,1024,0,0,0,0,144,0,0,86,4.141,4.129,0,0,0,0,1.602,90.68,-0.328051192,-0.328084,11,AutoTakeoff,
3100,4/28/25 22:42:07,4/29/25 5:42,0,0,0,,,3.28084E-5,0.656168,0,0,0,0,0,8.312,3.28084E-5,0,0,0,0,0,-1.342164,148.1,3.9,-1,0,1,1024,1024,1024,1024,0,0,0,0,144.4,0,0,86,4.141,4.129,0,0,0,0,1.602,90.68,3.28084E-5,0,11,AutoTakeoff,
3200,4/28/25 22:42:07,4/29/25 5:42,0,0,0,,,3.28084E-5,0.984252,0,0,0,0,0,8.312,3.28084E-5,0,0,0,0,0,-1.789552,147.9,2.9,-0.5,0,1,1024,1024,1024,1024,0,0,0,0,144.8,0,0,86,4.141,4.129,0,0,0,0,1.602,90.68,3.28084E-5,0,11,AutoTakeoff,
3300,4/28/25 22:42:08,4/29/25 5:42,0,0,0.328084,,,0.328116808,0.984252,0,0,0,0,0,8.312,0.328116808,0.328084,0,0,0,0,-2.013246,147.7,1.4,0.3,0,1,1024,1024,1024,1024,0,0,0,0,145,0,0,86,4.141,4.129,0,0,0,0,1.602,90.68,0.328116808,0.328084,11,AutoTakeoff,
3400,4/28/25 22:42:08,4/29/25 5:42,0,0,0.656168,,,0.656200808,0.984252,0,0,0,0,0,8.312,0.656200808,0.656168,0,0,0,0,-2.013246,147.9,-0.7,0.5,0,1,1024,1024,1024,1024,0,0,0,0,145.2,0,0,86,4.141,4.129,0,0,0,0,1.602,90.68,0.656200808,0.656168,11,AutoTakeoff,
3500,4/28/25 22:42:08,4/29/25 5:42,0,0,1.312336,,,1.312368808,1.312336,0,0,0,0,0,8.15,1.312368808,1.312336,0,0,0,0,-2.23694,147.9,-0.5,0.3,0,1,1024,1024,1024,1024,0,0,0,0,145.4,0,0,86,4.005,3.976,0,0,0,0,4.138,90.68,1.312368808,1.312336,11,AutoTakeoff,
3600,4/28/25 22:42:08,4/29/25 5:42,0,0,1.64042,,,1.640452808,1.312336,0,0,0,0,0,8.15,1.640452808,1.64042,0,0,0,0,-2.23694,147.8,0.7,0,0,1,1024,1024,1024,1024,0,0,0,0,145.6,0,0,86,4.005,3.976,0,0,0,0,4.138,90.68,1.640452808,1.64042,11,AutoTakeoff,
3700,4/28/25 22:42:08,4/29/25 5:42,0,0,1.968504,,,1.968536808,1.312336,0,0,0,0,0,8.15,1.968536808,1.968504,0,0,0,0,-2.23694,147.8,0.9,0,0,1,1024,1024,1024,1024,0,0,0,0,145.7,0,0,86,4.005,3.976,0,0,0,0,4.138,90.68,1.968536808,1.968504,11,AutoTakeoff,
3800,4/28/25 22:42:08,4/29/25 5:42,0,0,2.624672,,,2.624704808,1.968504,0,0,0,0,0,8.15,2.624704808,2.624672,0,0,0,0,-2.23694,147.8,1,0.4,0,1,1024,1024,1024,1024,0,0,0,0,145.8,0,0,86,4.005,3.976,0,0,0,0,4.138,90.68,2.624704808,2.624672,11,AutoTakeoff,
3900,4/28/25 22:42:08,4/29/25 5:42,0,0,2.952756,,,2.952788808,2.296588,0,0,0,0,0,8.15,2.952788808,2.952756,0,0,0,0,-2.23694,147.7,1.4,0.1,0,1,691,1024,1024,1024,-50,0,0,0,145.9,0,0,86,4.005,3.976,0,0,0,0,4.138,90.68,2.952788808,2.952756,11,AutoTakeoff,
4000,4/28/25 22:42:08,4/29/25 5:42,0,0,3.608924,,,3.608956808,2.296588,0,0,0,0,0,8.15,3.608956808,3.608924,0,0,0,0,-2.23694,147.8,1.5,0.1,0,1,691,1024,1024,1024,-50,0,0,0,146,0,0,86,4.005,3.976,0,0,0,0,4.138,90.68,3.608956808,3.608924,11,AutoTakeoff,
4100,4/28/25 22:42:08,4/29/25 5:42,0,0,3.937008,,,3.937040808,0.656168,0,0,0,0,0,8.15,3.937040808,3.937008,0,0,0,0,-2.23694,147.8,2.6,0,0,1,364,1024,1024,1024,-100,0,0,0,146.1,0,0,86,4.005,3.976,0,0,0,0,4.138,90.68,3.937040808,3.937008,6,P-GPS,
4200,4/28/25 22:42:09,4/29/25 5:42,0,0,4.265092,,,4.265124808,0.656168,0,0,0,0,0,8.15,4.265124808,4.265092,0,0,0,0,-2.013246,147.6,11.5,-0.8,0,1,364,1024,1024,1024,-100,0,0,0,146.2,0,0,86,4.005,3.976,0,0,0,0,4.138,90.68,4.265124808,4.265092,6,P-GPS,
4300,4/28/25 22:42:09,4/29/25 5:42,0,0,4.593176,,,4.593208808,0.656168,0,0,0,0,0,8.15,4.593208808,4.593176,0,0,0,0,-1.789552,147.4,18.6,-0.9,0,1,364,1024,1024,1024,-100,0,0,0,146.3,0,0,86,4.005,3.976,0,0,0,0,4.138,90.68,4.593208808,4.593176,6,P-GPS,
4400,4/28/25 22:42:09,4/29/25 5:42,0,0,5.249344,,,5.249376808,0.984252,0,0,0,0,0,8.15,5.249376808,5.249344,0,0,0,0,-1.565858,147.6,17.6,-0.5,0,1,364,1024,1024,1024,-100,0,0,0,146.4,0,0,86,4.005,3.976,0,0,0,0,4.138,90.68,5.249376808,5.249344,6,P-GPS,
4500,4/28/25 22:42:09,4/29/25 5:42,0,0,5.577428,,,5.577460808,0.984252,0,0,0,0,0,7.801,5.577460808,5.577428,0,0,0,0,-1.342164,147.3,17.1,0.4,0,1,1024,1024,1024,1024,0,0,0,0,146.4,0,0,86,3.91,3.882,0,0,0,0,11.543,90.68,5.577460808,5.577428,6,P-GPS,
4600,4/28/25 22:42:09,4/29/25 5:42,0,0,5.905512,,,5.905544808,0.984252,0,0,0,0,0,7.801,5.905544808,5.905512,0,0,0,0,-1.11847,146.7,15.5,2.8,0,1,1024,1024,1024,1024,0,0,0,0,146.5,0,0,86,3.91,3.882,0,0,0,0,11.543,90.68,5.905544808,5.905512,6,P-GPS,
4700,4/28/25 22:42:09,4/29/25 5:42,0,0,5.905512,,,5.905544808,0.656168,0,0,0,0,0,7.801,5.905544808,5.905512,0,0,0,0,2.013246,135.2,-11.5,-3.3,0,1,1024,1024,1024,1024,0,0,0,0,146.4,0,0,86,3.91,3.882,0,0,0,0,11.543,90.68,5.905544808,5.905512,6,P-GPS,
4800,4/28/25 22:42:09,4/29/25 5:42,0,0,5.905512,,,5.905544808,0.328084,0,0,0,0,0,7.801,5.905544808,5.905512,0,0,0,0,1.789552,134.4,-1.5,5.9,0,1,1024,776,1024,1024,0,-38,0,0,146.4,0,0,86,3.91,3.882,0,0,0,0,11.543,90.68,5.905544808,5.905512,6,P-GPS,
4900,4/28/25 22:42:09,4/29/25 5:42,0,0,5.905512,,,5.905544808,0,0,0,0,0,0,7.801,5.905544808,5.905512,0,0,0,0,1.342164,141.2,-0.1,3.6,0,1,1557,364,1024,1024,81,-100,0,0,146.4,0,0,86,3.91,3.882,0,0,0,0,11.543,90.68,5.905544808,5.905512,6,P-GPS,
5000,4/28/25 22:42:09,4/29/25 5:42,0,0,5.905512,,,5.905544808,0,0,0,0,0,0,7.801,5.905544808,5.905512,0,0,0,0,0.671082,144.3,0.7,-1,0,1,1557,364,1024,1024,81,-100,0,0,146.4,0,0,86,3.91,3.882,0,0,0,0,11.543,90.68,5.905544808,5.905512,6,P-GPS,
5100,4/28/25 22:42:09,4/29/25 5:42,0,0,6.233596,,,6.233628808,0,0,0,0,0,0,7.801,6.233628808,6.233596,0,0,0,0,-0.447388,145.4,0.5,-11.3,0,1,1465,364,1024,1024,67,-100,0,0,146.4,0,0,86,3.91,3.882,0,0,0,0,11.543,90.68,6.233628808,6.233596,6,P-GPS,
5200,4/28/25 22:42:10,4/29/25 5:42,0,0,6.233596,,,6.233628808,0.328084,0,0,0,0,0,7.801,6.233628808,6.233596,0,0,0,0,0,147.8,2,-3.7,0,1,1391,364,1024,1024,56,-100,0,0,146.4,0,0,86,3.91,3.882,0,0,0,0,11.543,90.68,6.233628808,6.233596,6,P-GPS,Lighting environment too dark. Visual positioning inaccurate. Fly with caution (Code: 720128)
5300,4/28/25 22:42:10,4/29/25 5:42,0,0,6.233596,,,6.233628808,0.328084,0,0,0,0,0,7.801,6.233628808,6.233596,0,0,0,0,0,148.7,-4.4,-13.1,0,1,1395,364,1024,1024,56,-100,0,0,146.4,0,0,86,3.91,3.882,0,0,0,0,11.543,90.68,6.233628808,6.233596,6,P-GPS,
5400,4/28/25 22:42:10,4/29/25 5:42,0,0,6.56168,,,6.561712808,0.328084,0,0,0,0,0,7.801,6.561712808,6.56168,0,0,0,0,0,152.4,-1.6,-6.5,0,1,1445,364,1024,1024,64,-100,0,0,146.4,0,0,86,3.91,3.882,0,0,0,0,11.543,90.68,6.561712808,6.56168,6,P-GPS,
5500,4/28/25 22:42:10,4/29/25 5:42,0,0,6.56168,,,6.561712808,0.328084,0,0,0,0,0,7.83,6.561712808,6.56168,0,0,0,0,0,157.8,-2.2,-15.5,0,1,1416,376,1024,1024,59,-98,0,0,146.4,0,0,86,3.94,3.922,0,0,0,0,12.102,90.68,6.561712808,6.56168,6,P-GPS,
5600,4/28/25 22:42:10,4/29/25 5:42,0,0,6.56168,,,6.561712808,0,0,0,0,0,0,7.83,6.561712808,6.56168,0,0,0,0,0.894776,152.3,-3,-16.7,0,1,1024,945,1024,1024,0,-12,0,0,146.4,0,0,86,3.94,3.922,0,0,0,0,12.102,90.68,6.561712808,6.56168,6,P-GPS,
5700,4/28/25 22:42:10,4/29/25 5:42,0,0,6.56168,,,6.561712808,0,0,0,0,0,0,7.83,6.561712808,6.56168,0,0,0,0,0.447388,146.6,-1.2,-11.1,0,1,1024,1024,1024,1024,0,0,0,0,146.4,0,0,86,3.94,3.922,0,0,0,0,12.102,90.68,6.561712808,6.56168,1,Atti,
5800,4/28/25 22:42:10,4/29/25 5:42,0,0,6.56168,,,6.561712808,0,0,0,0,0,0,7.83,6.561712808,6.56168,0,0,0,0,0.447388,150.6,2.9,4.8,0,1,1024,1024,1024,1024,0,0,0,0,146.6,0,0,86,3.94,3.922,0,0,0,0,12.102,90.68,6.561712808,6.56168,1,Atti,Attitude mode. Fly with caution Aircraft in Attitude mode. Unable to hover. Fly with caution (Code: 30004)
5900,4/28/25 22:42:10,4/29/25 5:42,0,0,6.56168,,,6.561712808,0,0,0,0,0,0,7.83,6.561712808,6.56168,0,0,0,0,0.671082,148.3,3.2,5.3,0,1,1024,1024,1024,691,0,0,0,-50,148.8,0,0,86,3.94,3.922,0,0,0,0,12.102,90.68,6.561712808,6.56168,1,Atti,
6000,4/28/25 22:42:10,4/29/25 5:42,0,0,6.56168,,,6.561712808,0,0,0,0,0,0,7.83,6.561712808,6.56168,0,0,0,0,0.671082,148.3,-0.4,-2.5,0,1,1024,1024,1024,997,0,0,0,-4,148.4,0,0,85,3.94,3.922,0,0,0,0,12.102,90.68,6.561712808,6.56168,1,Atti,
6100,4/28/25 22:42:10,4/29/25 5:42,0,0,6.56168,,,6.561712808,0,0,0,0,0,0,7.83,6.561712808,6.56168,0,0,0,0,0.447388,148.1,0.2,-1.8,0,1,1024,1024,364,1452,0,0,-100,65,148.2,0,0,85,3.94,3.922,0,0,0,0,12.102,90.68,6.561712808,6.56168,1,Atti,
6200,4/28/25 22:42:11,4/29/25 5:42,0,0,6.56168,,,6.561712808,0,0,0,0,0,0,7.83,6.561712808,6.56168,0,0,0,0,0.447388,148.2,0.8,-0.1,0,1,1024,1024,364,1400,0,0,-100,57,148.1,0,0,85,3.94,3.922,0,0,0,0,12.102,90.68,6.561712808,6.56168,1,Atti,
6300,4/28/25 22:42:11,4/29/25 5:42,0,0,6.889764,,,6.889796808,0,0,0,0,0,0,7.83,6.889796808,6.889764,0,0,0,0,0.447388,148.3,0.6,-0.5,0,1,1024,1024,364,1354,0,0,-100,50,148.2,0,0,85,3.94,3.922,0,0,0,0,12.102,90.68,6.889796808,6.889764,1,Atti,
6400,4/28/25 22:42:11,4/29/25 5:42,0,0,6.889764,,,6.889796808,0,0,0,0,0,0,7.83,6.889796808,6.889764,0,0,0,0,0.223694,148.3,0.7,-0.3,0,1,1024,1024,364,1269,0,0,-100,37,148.2,0,0,85,3.94,3.922,0,0,0,0,12.102,90.68,6.889796808,6.889764,1,Atti,
6500,4/28/25 22:42:11,4/29/25 5:42,0,0,6.889764,,,6.889796808,0,0,0,0,0,0,7.67,6.889796808,6.889764,0,0,0,0,0.223694,148.4,0.7,-0.2,0,1,1024,1024,364,1183,0,0,-100,24,148.2,0,0,85,3.814,3.825,0,0,0,0,12.878,90.86,6.889796808,6.889764,1,Atti,
6600,4/28/25 22:42:11,4/29/25 5:42,0,0,6.889764,,,6.889796808,0,0,0,0,0,0,7.67,6.889796808,6.889764,0,0,0,0,0.223694,148.4,0.7,-0.1,0,1,1024,1024,364,1183,0,0,-100,24,148.3,0,0,85,3.814,3.825,0,0,0,0,12.878,90.86,6.889796808,6.889764,1,Atti,
6700,4/28/25 22:42:11,4/29/25 5:42,0,0,6.889764,,,6.889796808,0,0,0,0,0,0,7.67,6.889796808,6.889764,0,0,0,0,0,148.4,0.6,-0.2,0,1,1024,1024,364,1122,0,0,-100,15,148.3,0,0,85,3.814,3.825,0,0,0,0,12.878,90.86,6.889796808,6.889764,1,Atti,
6800,4/28/25 22:42:11,4/29/25 5:42,0,0,6.889764,,,6.889796808,0.328084,0,0,0,0,0,7.67,6.889796808,6.889764,0,0,0,0,0,148.4,0.5,-0.2,0,1,1024,1024,1024,1024,0,0,0,0,148.3,0,0,85,3.814,3.825,0,0,0,0,12.878,90.86,6.889796808,6.889764,1,Atti,
6900,4/28/25 22:42:11,4/29/25 5:42,0,0,6.889764,,,6.889796808,0.328084,0,0,0,0,0,7.67,6.889796808,6.889764,0,0,0,0,0,148.4,0.5,-0.2,0,1,1024,1024,1024,1024,0,0,0,0,148.3,0,0,85,3.814,3.825,0,0,0,0,12.878,90.86,6.889796808,6.889764,1,Atti,
7000,4/28/25 22:42:11,4/29/25 5:42,0,0,6.889764,,,6.889796808,0.328084,0,0,0,0,0,7.67,6.889796808,6.889764,0,0,0,0,0,148.4,0.4,-0.3,0,1,1024,1024,1024,1024,0,0,0,0,148.3,0,0,85,3.814,3.825,0,0,0,0,12.878,90.86,6.889796808,6.889764,1,Atti,
7100,4/28/25 22:42:11,4/29/25 5:42,0,0,6.889764,,,6.889796808,0.328084,0,0,0,0,0,7.67,6.889796808,6.889764,0,0,0,0,0,148.4,0.4,-0.2,0,1,1024,1024,1024,1024,0,0,0,0,148.3,0,0,85,3.814,3.825,0,0,0,0,12.878,90.86,6.889796808,6.889764,1,Atti,
7200,4/28/25 22:42:12,4/29/25 5:42,0,0,6.889764,,,6.889796808,0.328084,0,0,0,0,0,7.67,6.889796808,6.889764,0,0,0,0,0,148.4,0.4,-0.1,0,1,1024,1024,1024,1024,0,0,0,0,148.3,0,0,85,3.814,3.825,0,0,0,0,12.878,90.86,6.889796808,6.889764,1,Atti,
7300,4/28/25 22:42:12,4/29/25 5:42,0,0,7.217848,,,7.217880808,0.328084,0,0,0,0,0,7.67,7.217880808,7.217848,0,0,0,0,0,148.4,0.3,-0.2,0,1,1024,1024,1024,1024,0,0,0,0,148.3,0,0,85,3.814,3.825,0,0,0,0,12.878,90.86,7.217880808,7.217848,1,Atti,
7400,4/28/25 22:42:12,4/29/25 5:42,0,0,7.217848,,,7.217880808,0.328084,0,0,0,0,0,7.67,7.217880808,7.217848,0,0,0,0,0,148.4,0.3,-0.2,0,1,1024,1024,1024,1024,0,0,0,0,148.3,0,0,85,3.814,3.825,0,0,0,0,12.878,90.86,7.217880808,7.217848,1,Atti,
7500,4/28/25 22:42:12,4/29/25 5:42,0,0,7.217848,,,7.217880808,0.328084,0,0,0,0,0,7.553,7.217880808,7.217848,0,0,0,0,0,148.4,0.3,-0.1,0,1,1024,1024,1024,1024,0,0,0,0,148.3,0,0,85,3.782,3.747,0,0,0,0,16.296,90.86,7.217880808,7.217848,1,Atti,
7600,4/28/25 22:42:12,4/29/25 5:42,0,0,7.217848,,,7.217880808,0.328084,0,0,0,0,0,7.553,7.217880808,7.217848,0,0,0,0,0,148.4,0.3,-0.1,0,1,1024,1024,1469,1024,0,0,67,0,148.3,0,0,85,3.782,3.747,0,0,0,0,16.296,90.86,7.217880808,7.217848,1,Atti,
7700,4/28/25 22:42:12,4/29/25 5:42,0,0,7.217848,,,7.217880808,0.328084,0,0,0,0,0,7.553,7.217880808,7.217848,0,0,0,0,0,148.4,0.2,-0.1,0,1,1024,1024,1469,1024,0,0,67,0,148.3,0,0,85,3.782,3.747,0,0,0,0,16.296,90.86,7.217880808,7.217848,1,Atti,
7800,4/28/25 22:42:12,4/29/25 5:42,0,0,7.217848,,,7.217880808,0.328084,0,0,0,0,0,7.553,7.217880808,7.217848,0,0,0,0,0,148.4,0.2,-0.1,0,1,1024,1024,1540,1024,0,0,78,0,148.3,0,0,85,3.782,3.747,0,0,0,0,16.296,90.86,7.217880808,7.217848,1,Atti,
7900,4/28/25 22:42:12,4/29/25 5:42,0,0,7.217848,,,7.217880808,0.328084,0,0,0,0,0,7.553,7.217880808,7.217848,0,0,0,0,0,148.4,0.1,-0.2,0,1,1024,1024,1024,1024,0,0,0,0,148.3,0,0,85,3.782,3.747,0,0,0,0,16.296,90.86,7.217880808,7.217848,1,Atti,
8000,4/28/25 22:42:12,4/29/25 5:42,0,0,7.217848,,,7.217880808,0.328084,0,0,0,0,0,7.553,7.217880808,7.217848,0,0,0,0,0,148.4,0,-0.2,0,1,1024,1024,1024,1024,0,0,0,0,148.3,0,0,85,3.782,3.747,0,0,0,0,16.296,90.86,7.217880808,7.217848,1,Atti,
8100,4/28/25 22:42:12,4/29/25 5:42,0,0,7.217848,,,7.217880808,0.328084,0,0,0,0,0,7.553,7.217880808,7.217848,0,0,0,0,0,148.4,0.1,0,0,1,1024,1024,1024,1024,0,0,0,0,148.3,0,0,85,3.782,3.747,0,0,0,0,16.296,90.86,7.217880808,7.217848,1,Atti,
8200,4/28/25 22:42:12,4/29/25 5:42,0,0,7.217848,,,7.217880808,0.328084,0,0,0,0,0,7.553,7.217880808,7.217848,0,0,0,0,0,148.4,0,-0.1,0,1,1024,1024,1024,1024,0,0,0,0,148.3,0,0,85,3.782,3.747,0,0,0,0,16.296,90.86,7.217880808,7.217848,1,Atti,
8300,4/28/25 22:42:13,4/29/25 5:42,0,0,7.217848,,,7.217880808,0.328084,0,0,0,0,0,7.553,7.217880808,7.217848,0,0,0,0,0,148.4,0,0,0,1,1024,1024,1024,1024,0,0,0,0,148.3,0,0,85,3.782,3.747,0,0,0,0,16.296,90.86,7.217880808,7.217848,1,Atti,
8400,4/28/25 22:42:13,4/29/25 5:42,0,0,7.217848,,,7.217880808,0.328084,0,0,0,0,0,7.553,7.217880808,7.217848,0,0,0,0,0,148.4,0,0,0,1,1024,1024,1024,1024,0,0,0,0,148.3,0,0,85,3.782,3.747,0,0,0,0,16.296,90.86,7.217880808,7.217848,1,Atti,
8500,4/28/25 22:42:13,4/29/25 5:42,0,0,7.217848,,,7.217880808,0.328084,0,0,0,0,0,7.51,7.217880808,7.217848,0,0,0,0,0,148.4,0,0,0,1,1024,1024,1024,1024,0,0,0,0,148.3,0,0,85,3.772,3.73,0,0,0,0,17.451,91.04,7.217880808,7.217848,1,Atti,
8600,4/28/25 22:42:13,4/29/25 5:42,0,0,7.217848,,,7.217880808,0.328084,0,0,0,0,0,7.51,7.217880808,7.217848,0,0,0,0,0,148.4,0.1,0,0,1,1024,1024,1024,1024,0,0,0,0,148.3,0,0,85,3.772,3.73,0,0,0,0,17.451,91.04,7.217880808,7.217848,1,Atti,
8700,4/28/25 22:42:13,4/29/25 5:42,0,0,7.217848,,,7.217880808,0.328084,0,0,0,0,0,7.51,7.217880808,7.217848,0,0,0,0,0,148.4,0,0,0,1,1024,1024,1024,1024,0,0,0,0,148.3,0,0,85,3.772,3.73,0,0,0,0,17.451,91.04,7.217880808,7.217848,1,Atti,
8800,4/28/25 22:42:13,4/29/25 5:42,0,0,7.217848,,,7.217880808,0.328084,0,0,0,0,0,7.51,7.217880808,7.217848,0,0,0,0,0,148.4,0,0,0,1,1024,1024,1024,1024,0,0,0,0,148.3,0,0,85,3.772,3.73,0,0,0,0,17.451,91.04,7.217880808,7.217848,1,Atti,
8900,4/28/25 22:42:13,4/29/25 5:42,0,0,7.217848,,,7.217880808,0.328084,0,0,0,0,0,7.51,7.217880808,7.217848,0,0,0,0,0,148.4,0,0,0,1,1024,1024,1024,1024,0,0,0,0,148.3,0,0,85,3.772,3.73,0,0,0,0,17.451,91.04,7.217880808,7.217848,1,Atti,
9000,4/28/25 22:42:13,4/29/25 5:42,0,0,7.217848,,,7.217880808,0.328084,0,0,0,0,0,7.51,7.217880808,7.217848,0,0,0,0,0,148.4,0,0,0,1,1024,1024,1024,1024,0,0,0,0,148.3,0,0,85,3.772,3.73,0,0,0,0,17.451,91.04,7.217880808,7.217848,1,Atti,
9100,4/28/25 22:42:13,4/29/25 5:42,0,0,7.217848,,,7.217880808,0.328084,0,0,0,0,0,7.51,7.217880808,7.217848,0,0,0,0,0,148.4,0,0,0,1,1024,1024,1024,1024,0,0,0,0,148.3,0,0,85,3.772,3.73,0,0,0,0,17.451,91.04,7.217880808,7.217848,1,Atti,
9200,4/28/25 22:42:14,4/29/25 5:42,0,0,7.217848,,,7.217880808,0.328084,0,0,0,0,0,7.51,7.217880808,7.217848,0,0,0,0,0,148.4,0,0,0,1,1024,1024,1024,1024,0,0,0,0,148.3,0,0,85,3.772,3.73,0,0,0,0,17.451,91.04,7.217880808,7.217848,1,Atti,
9300,4/28/25 22:42:14,4/29/25 5:42,0,0,7.217848,,,7.217880808,0.328084,0,0,0,0,0,7.51,7.217880808,7.217848,0,0,0,0,0,148.4,0,0,0,1,1024,1024,1024,1024,0,0,0,0,148.3,0,0,85,3.772,3.73,0,0,0,0,17.451,91.04,7.217880808,7.217848,1,Atti,
9400,4/28/25 22:42:14,4/29/25 5:42,0,0,7.217848,,,7.217880808,0.328084,0,0,0,0,0,7.51,7.217880808,7.217848,0,0,0,0,0,148.4,0,0,0,1,1024,1024,1024,1024,0,0,0,0,148.3,0,0,85,3.772,3.73,0,0,0,0,17.451,91.04,7.217880808,7.217848,1,Atti,
9500,4/28/25 22:42:14,4/29/25 5:42,0,0,7.217848,,,7.217880808,0.328084,0,0,0,0,0,7.493,7.217880808,7.217848,0,0,0,0,0,148.4,0,0,0,1,1024,1024,1024,1024,0,0,0,0,148.3,0,0,85,3.759,3.72,0,0,0,0,17.071,91.22,7.217880808,7.217848,1,Atti,
9600,4/28/25 22:42:14,4/29/25 5:42,0,0,7.217848,,,7.217880808,0.328084,0,0,0,0,0,7.493,7.217880808,7.217848,0,0,0,0,0,148.4,0,0,0,1,1024,1024,1024,1024,0,0,0,0,148.4,0,0,85,3.759,3.72,0,0,0,0,17.071,91.22,7.217880808,7.217848,1,Atti,
9700,4/28/25 22:42:14,4/29/25 5:42,0,0,7.217848,,,7.217880808,0.328084,0,0,0,0,0,7.493,7.217880808,7.217848,0,0,0,0,0,148.4,0,0,0,1,1024,1024,1024,1024,0,0,0,0,148.4,0,0,85,3.759,3.72,0,0,0,0,17.071,91.22,7.217880808,7.217848,1,Atti,
9800,4/28/25 22:42:14,4/29/25 5:42,0,0,7.217848,,,7.217880808,0.328084,0,0,0,0,0,7.493,7.217880808,7.217848,0,0,0,0,0,148.4,0,0.1,0,1,1024,1024,1024,1024,0,0,0,0,148.3,0,0,85,3.759,3.72,0,0,0,0,17.071,91.22,7.217880808,7.217848,1,Atti,
9900,4/28/25 22:42:14,4/29/25 5:42,0,0,7.217848,,,7.217880808,0.328084,0,0,0,0,0,7.493,7.217880808,7.217848,0,0,0,0,0,148.4,0,0.1,0,1,1024,1024,1024,1024,0,0,0,0,148.4,0,0,85,3.759,3.72,0,0,0,0,17.071,91.22,7.217880808,7.217848,1,Atti,
10000,4/28/25 22:42:14,4/29/25 5:42,0,0,7.217848,,,7.217880808,0.328084,0,0,0,0,0,7.493,7.217880808,7.217848,0,0,0,0,0,148.4,0,0,0,1,1024,1024,1024,1024,0,0,0,0,148.4,0,0,84,3.759,3.72,0,0,0,0,17.071,91.22,7.217880808,7.217848,1,Atti,
10100,4/28/25 22:42:14,4/29/25 5:42,0,0,7.217848,,,7.217880808,0.328084,0,0,0,0,0,7.493,7.217880808,7.217848,0,0,0,0,0,148.4,0,0,0,1,1024,1024,1024,1024,0,0,0,0,148.4,0,0,84,3.759,3.72,0,0,0,0,17.071,91.22,7.217880808,7.217848,1,Atti,
10200,4/28/25 22:42:15,4/29/25 5:42,0,0,7.217848,,,7.217880808,0.328084,0,0,0,0,0,7.493,7.217880808,7.217848,0,0,0,0,0,148.4,0,0,0,1,1024,1024,1024,1024,0,0,0,0,148.4,0,0,84,3.759,3.72,0,0,0,0,17.071,91.22,7.217880808,7.217848,1,Atti,
10300,4/28/25 22:42:15,4/29/25 5:42,0,0,7.217848,,,7.217880808,0.328084,0,0,0,0,0,7.493,7.217880808,7.217848,0,0,0,0,0,148.4,0,0,0,1,1024,1024,1024,1024,0,0,0,0,148.3,0,0,84,3.759,3.72,0,0,0,0,17.071,91.22,7.217880808,7.217848,1,Atti,
10400,4/28/25 22:42:15,4/29/25 5:42,0,0,7.217848,,,7.217880808,0.328084,0,0,0,0,0,7.493,7.217880808,7.217848,0,0,0,0,0,148.4,0,0,0,1,1024,1024,1024,1024,0,0,0,0,148.4,0,0,84,3.759,3.72,0,0,0,0,17.071,91.22,7.217880808,7.217848,1,Atti,
10500,4/28/25 22:42:15,4/29/25 5:42,0,0,7.217848,,,7.217880808,0.328084,0,0,0,0,0,7.457,7.217880808,7.217848,0,0,0,0,0,148.4,0,0,0,1,1024,1024,1024,1024,0,0,0,0,148.4,0,0,84,3.744,3.704,0,0,0,0,16.996,91.22,7.217880808,7.217848,1,Atti,
10600,4/28/25 22:42:15,4/29/25 5:42,0,0,7.217848,,,7.217880808,0.328084,0,0,0,0,0,7.457,7.217880808,7.217848,0,0,0,0,0,148.4,0,0,0,1,1024,1024,1024,1024,0,0,0,0,148.4,0,0,84,3.744,3.704,0,0,0,0,16.996,91.22,7.217880808,7.217848,1,Atti,
10700,4/28/25 22:42:15,4/29/25 5:42,0,0,7.217848,,,7.217880808,0.328084,0,0,0,0,0,7.457,7.217880808,7.217848,0,0,0,0,0,148.4,0,0,0,1,1024,1024,1024,1024,0,0,0,0,148.4,0,0,84,3.744,3.704,0,0,0,0,16.996,91.22,7.217880808,7.217848,1,Atti,
10800,4/28/25 22:42:15,4/29/25 5:42,0,0,7.217848,,,7.217880808,0.328084,0,0,0,0,0,7.457,7.217880808,7.217848,0,0,0,0,0,148.4,0,0,0,1,1024,1024,1024,1024,0,0,0,0,148.4,0,0,84,3.744,3.704,0,0,0,0,16.996,91.22,7.217880808,7.217848,1,Atti,
10900,4/28/25 22:42:15,4/29/25 5:42,0,0,7.217848,,,7.217880808,0.328084,0,0,0,0,0,7.457,7.217880808,7.217848,0,0,0,0,0,148.4,-0.1,-0.1,0,1,1024,1024,1024,1024,0,0,0,0,148.4,0,0,84,3.744,3.704,0,0,0,0,16.996,91.22,7.217880808,7.217848,1,Atti,
11000,4/28/25 22:42:15,4/29/25 5:42,0,0,7.217848,,,7.217880808,0.328084,0,0,0,0,0,7.457,7.217880808,7.217848,0,0,0,0,0,148.4,-0.1,0,0,1,1024,1024,1024,1024,0,0,0,0,148.4,0,0,84,3.744,3.704,0,0,0,0,16.996,91.22,7.217880808,7.217848,1,Atti,
11100,4/28/25 22:42:15,4/29/25 5:42,0,0,7.217848,,,7.217880808,0.328084,0,0,0,0,0,7.457,7.217880808,7.217848,0,0,0,0,0,148.4,-0.1,0,0,1,1024,1024,1024,1024,0,0,0,0,148.4,0,0,84,3.744,3.704,0,0,0,0,16.996,91.22,7.217880808,7.217848,1,Atti,
11200,4/28/25 22:42:16,4/29/25 5:42,0,0,7.217848,,,7.217880808,0.328084,0,0,0,0,0,7.457,7.217880808,7.217848,0,0,0,0,0,148.4,-0.1,-0.1,0,1,1024,1024,1024,1024,0,0,0,0,148.4,0,0,84,3.744,3.704,0,0,0,0,16.996,91.22,7.217880808,7.217848,1,Atti,
11300,4/28/25 22:42:16,4/29/25 5:42,0,0,7.217848,,,7.217880808,0.328084,0,0,0,0,0,7.457,7.217880808,7.217848,0,0,0,0,0,148.4,-0.1,0,0,1,1024,1024,1024,1024,0,0,0,0,148.4,0,0,84,3.744,3.704,0,0,0,0,16.996,91.22,7.217880808,7.217848,1,Atti,
11400,4/28/25 22:42:16,4/29/25 5:42,0,0,7.217848,,,7.217880808,0.328084,0,0,0,0,0,7.457,7.217880808,7.217848,0,0,0,0,0,148.4,-0.1,0,0,1,1024,1024,1024,1024,0,0,0,0,148.4,0,0,84,3.744,3.704,0,0,0,0,16.996,91.22,7.217880808,7.217848,1,Atti,
11500,4/28/25 22:42:16,4/29/25 5:42,0,0,7.217848,,,7.217880808,0.328084,0,0,0,0,0,7.441,7.217880808,7.217848,0,0,0,0,0,148.4,-0.1,0,0,1,1024,1024,1024,1024,0,0,0,0,148.4,0,0,84,3.736,3.695,0,0,0,0,16.821,91.4,7.217880808,7.217848,1,Atti,
11600,4/28/25 22:42:16,4/29/25 5:42,0,0,7.217848,,,7.217880808,0.328084,0,0,0,0,0,7.441,7.217880808,7.217848,0,0,0,0,0,148.4,-0.1,0,0,1,1024,1024,1024,1024,0,0,0,0,148.4,0,0,84,3.736,3.695,0,0,0,0,16.821,91.4,7.217880808,7.217848,1,Atti,
11700,4/28/25 22:42:16,4/29/25 5:42,0,0,7.217848,,,7.217880808,0.328084,0,0,0,0,0,7.441,7.217880808,7.217848,0,0,0,0,0,148.4,-0.1,0,0,1,1024,1024,1024,1024,0,0,0,0,148.4,0,0,84,3.736,3.695,0,0,0,0,16.821,91.4,7.217880808,7.217848,1,Atti,
11800,4/28/25 22:42:16,4/29/25 5:42,0,0,7.217848,,,7.217880808,0.328084,0,0,0,0,0,7.441,7.217880808,7.217848,0,0,0,0,0,148.4,-0.1,0,0,1,1024,1024,1024,1024,0,0,0,0,148.4,0,0,84,3.736,3.695,0,0,0,0,16.821,91.4,7.217880808,7.217848,1,Atti,
11900,4/28/25 22:42:16,4/29/25 5:42,0,0,7.217848,,,7.217880808,0.328084,0,0,0,0,0,7.441,7.217880808,7.217848,0,0,0,0,0,148.4,-0.1,0,0,1,1024,1024,1024,1024,0,0,0,0,148.4,0,0,84,3.736,3.695,0,0,0,0,16.821,91.4,7.217880808,7.217848,1,Atti,
12000,4/28/25 22:42:16,4/29/25 5:42,0,0,7.217848,,,7.217880808,0.328084,0,0,0,0,0,7.441,7.217880808,7.217848,0,0,0,0,0,148.5,-0.1,0.1,0,1,1024,1024,1024,1024,0,0,0,0,148.4,0,0,84,3.736,3.695,0,0,0,0,16.821,91.4,7.217880808,7.217848,1,Atti,
12100,4/28/25 22:42:16,4/29/25 5:42,0,0,7.217848,,,7.217880808,0.328084,0,0,0,0,0,7.441,7.217880808,7.217848,0,0,0,0,0,148.4,0,0.1,0,1,1024,1024,1024,1024,0,0,0,0,148.4,0,0,84,3.736,3.695,0,0,0,0,16.821,91.4,7.217880808,7.217848,1,Atti,
12200,4/28/25 22:42:16,4/29/25 5:42,0,0,7.217848,,,7.217880808,0.328084,0,0,0,0,0,7.441,7.217880808,7.217848,0,0,0,0,0,148.5,0,0.1,0,1,1024,1024,1024,1024,0,0,0,0,148.4,0,0,84,3.736,3.695,0,0,0,0,16.821,91.4,7.217880808,7.217848,1,Atti,
12300,4/28/25 22:42:17,4/29/25 5:42,0,0,7.217848,,,7.217880808,0.328084,0,0,0,0,0,7.441,7.217880808,7.217848,0,0,0,0,0,148.4,-0.1,0,0,1,1024,1024,1024,1024,0,0,0,0,148.4,0,0,84,3.736,3.695,0,0,0,0,16.821,91.4,7.217880808,7.217848,1,Atti,
12400,4/28/25 22:42:17,4/29/25 5:42,0,0,7.217848,,,7.217880808,0.328084,0,0,0,0,0,7.441,7.217880808,7.217848,0,0,0,0,0,148.4,0,0.1,0,1,1024,1024,1024,1024,0,0,0,0,148.4,0,0,84,3.736,3.695,0,0,0,0,16.821,91.4,7.217880808,7.217848,1,Atti,
12500,4/28/25 22:42:17,4/29/25 5:42,0,0,7.217848,,,7.217880808,0.328084,0,0,0,0,0,7.404,7.217880808,7.217848,0,0,0,0,0,148.4,-0.1,0,0,1,1024,1024,1024,1024,0,0,0,0,148.4,0,0,84,3.72,3.675,0,0,0,0,16.841,91.76,7.217880808,7.217848,1,Atti,
12600,4/28/25 22:42:17,4/29/25 5:42,0,0,7.217848,,,7.217880808,0.328084,0,0,0,0,0,7.404,7.217880808,7.217848,0,0,0,0,0,148.4,-0.1,0,0,1,1024,1024,1024,1024,0,0,0,0,148.4,0,0,84,3.72,3.675,0,0,0,0,16.841,91.76,7.217880808,7.217848,1,Atti,
12700,4/28/25 22:42:17,4/29/25 5:42,0,0,6.889764,,,6.889796808,0.328084,0,0,0,0,0,7.404,7.217880808,7.217848,0,0,0,0,0,148.4,-0.1,0,0,1,1024,1024,1024,1024,0,0,0,0,148.4,0,0,84,3.72,3.675,0,0,0,0,16.841,91.76,6.889796808,6.889764,1,Atti,
12800,4/28/25 22:42:17,4/29/25 5:42,0,0,6.889764,,,6.889796808,0.328084,0,0,0,0,0,7.404,7.217880808,7.217848,0,0,0,0,0,148.4,-0.1,0,0,1,1024,1024,1024,1024,0,0,0,0,148.4,0,0,84,3.72,3.675,0,0,0,0,16.841,91.76,6.889796808,6.889764,1,Atti,
12900,4/28/25 22:42:17,4/29/25 5:42,0,0,6.889764,,,6.889796808,0.328084,0,0,0,0,0,7.404,7.217880808,7.217848,0,0,0,0,0,148.4,-0.1,0,0,1,1024,1024,1024,1024,0,0,0,0,148.4,0,0,84,3.72,3.675,0,0,0,0,16.841,91.76,6.889796808,6.889764,1,Atti,
13000,4/28/25 22:42:17,4/29/25 5:42,0,0,6.889764,,,6.889796808,0.328084,0,0,0,0,0,7.404,7.217880808,7.217848,0,0,0,0,0,148.4,-0.1,0,0,1,1024,1024,1024,1024,0,0,0,0,148.4,0,0,84,3.72,3.675,0,0,0,0,16.841,91.76,6.889796808,6.889764,1,Atti,
13100,4/28/25 22:42:17,4/29/25 5:42,0,0,6.889764,,,6.889796808,0.328084,0,0,0,0,0,7.404,7.217880808,7.217848,0,0,0,0,0,148.4,-0.1,0,0,1,1024,1024,1024,1024,0,0,0,0,148.4,0,0,84,3.72,3.675,0,0,0,0,16.841,91.76,6.889796808,6.889764,12,AutoLanding,
13200,4/28/25 22:42:18,4/29/25 5:42,0,0,6.889764,,,6.889796808,0.328084,0,0,0,0,0,7.404,7.217880808,7.217848,0,0,0,0,0,148.4,-0.2,-0.2,0,1,1024,1024,1024,1024,0,0,0,0,148.4,0,0,84,3.72,3.675,0,0,0,0,16.841,91.76,6.889796808,6.889764,12,AutoLanding,No satellite positioning. Fly with caution Satellite positioning signal weak. Hovering unstable. Fly with caution (Code: 30002)
13300,4/28/25 22:42:18,4/29/25 5:42,0,0,6.889764,,,6.889796808,0.328084,0,0,0,0,0,7.404,7.217880808,7.217848,0,0,0,0,0,148.4,-0.3,-0.3,0,1,1024,1024,1024,1024,0,0,0,0,148.4,0,0,84,3.72,3.675,0,0,0,0,16.841,91.76,6.889796808,6.889764,12,AutoLanding,
13400,4/28/25 22:42:18,4/29/25 5:42,0,0,6.889764,,,6.889796808,0.328084,0,0,0,0,0,7.404,7.217880808,7.217848,0,0,0,0,0,148.4,-0.3,-0.3,0,1,1024,1024,1024,1024,0,0,0,0,148.4,0,0,84,3.72,3.675,0,0,0,0,16.841,91.76,6.889796808,6.889764,12,AutoLanding,
13500,4/28/25 22:42:18,4/29/25 5:42,0,0,6.889764,,,6.889796808,0.328084,0,0,0,0,0,7.378,7.217880808,7.217848,0,0,0,0,0,148.4,-0.3,-0.2,0,1,1024,1024,1024,1024,0,0,0,0,148.4,0,0,84,3.708,3.661,0,0,0,0,16.79,92.12,6.889796808,6.889764,12,AutoLanding,
13600,4/28/25 22:42:18,4/29/25 5:42,0,0,6.889764,,,6.889796808,0.328084,0,0,0,0,0,7.378,7.217880808,7.217848,0,0,0,0,0,148.4,-0.3,-0.2,0,1,1024,1024,1024,1024,0,0,0,0,148.4,0,0,84,3.708,3.661,0,0,0,0,16.79,92.12,6.889796808,6.889764,12,AutoLanding,
13700,4/28/25 22:42:18,4/29/25 5:42,0,0,6.889764,,,6.889796808,0.328084,0,0,0,0,0,7.378,7.217880808,7.217848,0,0,0,0,0,148.4,-0.3,-0.2,0,1,1024,1024,1024,1024,0,0,0,0,148.4,0,0,84,3.708,3.661,0,0,0,0,16.79,92.12,6.889796808,6.889764,12,AutoLanding,
13800,4/28/25 22:42:18,4/29/25 5:42,0,0,6.889764,,,6.889796808,0.328084,0,0,0,0,0,7.378,7.217880808,7.217848,0,0,0,0,0,148.4,-0.4,-0.2,0,1,1024,1024,1024,1024,0,0,0,0,148.4,0,0,84,3.708,3.661,0,0,0,0,16.79,92.12,6.889796808,6.889764,12,AutoLanding,
13900,4/28/25 22:42:18,4/29/25 5:42,0,0,6.889764,,,6.889796808,0.328084,0,0,0,0,0,7.378,7.217880808,7.217848,0,0,0,0,0,148.4,-0.4,-0.2,0,1,1024,1024,1024,1024,0,0,0,0,148.4,0,0,84,3.708,3.661,0,0,0,0,16.79,92.12,6.889796808,6.889764,12,AutoLanding,
14000,4/28/25 22:42:18,4/29/25 5:42,0,0,6.889764,,,6.889796808,0.328084,0,0,0,0,0,7.378,7.217880808,7.217848,0,0,0,0,0,148.4,-0.4,-0.3,0,1,1024,1024,1024,1024,0,0,0,0,148.4,0,0,84,3.708,3.661,0,0,0,0,16.79,92.12,6.889796808,6.889764,12,AutoLanding,
14100,4/28/25 22:42:18,4/29/25 5:42,0,0,6.889764,,,6.889796808,0.328084,0,0,0,0,0,7.378,7.217880808,7.217848,0,0,0,0,0,148.4,-0.5,-0.3,0,1,1024,1024,1024,1024,0,0,0,0,148.4,0,0,84,3.708,3.661,0,0,0,0,16.79,92.12,6.889796808,6.889764,12,AutoLanding,
14200,4/28/25 22:42:19,4/29/25 5:42,0,0,6.889764,,,6.889796808,0.328084,0,0,0,0,0,7.378,7.217880808,7.217848,0,0,0,0,0,148.4,-0.5,-0.3,0,1,1024,1024,1024,1024,0,0,0,0,148.4,0,0,84,3.708,3.661,0,0,0,0,16.79,92.12,6.889796808,6.889764,12,AutoLanding,
14300,4/28/25 22:42:19,4/29/25 5:42,0,0,6.889764,,,6.889796808,0.328084,0,0,0,0,0,7.378,7.217880808,7.217848,0,0,0,0,0,148.4,-0.5,-0.3,0,1,1024,1024,1024,1024,0,0,0,0,148.4,0,0,84,3.708,3.661,0,0,0,0,16.79,92.12,6.889796808,6.889764,12,AutoLanding,
14400,4/28/25 22:42:19,4/29/25 5:42,0,0,6.889764,,,6.889796808,0.328084,0,0,0,0,0,7.378,7.217880808,7.217848,0,0,0,0,0,148.4,-0.5,-0.2,0,1,1024,1024,1024,1024,0,0,0,0,148.4,0,0,84,3.708,3.661,0,0,0,0,16.79,92.12,6.889796808,6.889764,12,AutoLanding,
14500,4/28/25 22:42:19,4/29/25 5:42,0,0,6.889764,,,6.889796808,0.328084,0,0,0,0,0,7.437,7.217880808,7.217848,0,0,0,0,0,148.4,-0.5,-0.1,0,1,1024,1024,1024,1024,0,0,0,0,148.4,0,0,84,3.76,3.716,0,0,0,0,15.603,92.3,6.889796808,6.889764,12,AutoLanding,
14600,4/28/25 22:42:19,4/29/25 5:42,0,0,6.889764,,,6.889796808,0.328084,0,0,0,0,0,7.437,7.217880808,7.217848,0,0,0,0,0,148.4,-0.5,-0.1,0,1,1024,1024,1024,1024,0,0,0,0,148.4,0,0,84,3.76,3.716,0,0,0,0,15.603,92.3,6.889796808,6.889764,12,AutoLanding,
14700,4/28/25 22:42:19,4/29/25 5:42,0,0,6.889764,,,6.889796808,0.328084,0,0,0,0,0,7.437,7.217880808,7.217848,0,0,0,0,0,148.4,-0.6,-0.2,0,1,1024,1024,1024,1024,0,0,0,0,148.4,0,0,84,3.76,3.716,0,0,0,0,15.603,92.3,6.889796808,6.889764,12,AutoLanding,
14800,4/28/25 22:42:19,4/29/25 5:42,0,0,6.889764,,,6.889796808,0.328084,0,0,0,0,0,7.437,7.217880808,7.217848,0,0,0,0,0,148.4,-0.6,-0.2,0,1,1024,1024,1024,1024,0,0,0,0,148.4,0,0,84,3.76,3.716,0,0,0,0,15.603,92.3,6.889796808,6.889764,12,AutoLanding,
14900,4/28/25 22:42:19,4/29/25 5:42,0,0,6.889764,,,6.889796808,0.328084,0,0,0,0,0,7.437,7.217880808,7.217848,0,0,0,0,0,148.4,-0.6,-0.1,0,1,1024,1024,1024,1024,0,0,0,0,148.4,0,0,84,3.76,3.716,0,0,0,0,15.603,92.3,6.889796808,6.889764,12,AutoLanding,
15000,4/28/25 22:42:19,4/29/25 5:42,0,0,6.889764,,,6.889796808,0.328084,0,0,0,0,0,7.437,7.217880808,7.217848,0,0,0,0,0,148.4,-0.5,0,0,1,1024,1024,1024,1024,0,0,0,0,148.4,0,0,84,3.76,3.716,0,0,0,0,15.603,92.3,6.889796808,6.889764,12,AutoLanding,
15100,4/28/25 22:42:19,4/29/25 5:42,0,0,6.889764,,,6.889796808,0.328084,0,0,0,0,0,7.437,7.217880808,7.217848,0,0,0,0,0,148.4,-0.5,0,0,1,1024,1024,1024,1024,0,0,0,0,148.4,0,0,84,3.76,3.716,0,0,0,0,15.603,92.3,6.889796808,6.889764,12,AutoLanding,
15200,4/28/25 22:42:20,4/29/25 5:42,0,0,6.889764,,,6.889796808,0.328084,0,0,0,0,0,7.437,7.217880808,7.217848,0,0,0,0,0,148.3,-0.6,-0.2,0,1,1024,1024,1024,1024,0,0,0,0,148.4,0,0,84,3.76,3.716,0,0,0,0,15.603,92.3,6.889796808,6.889764,12,AutoLanding,
15300,4/28/25 22:42:20,4/29/25 5:42,0,0,6.889764,,,6.889796808,0.328084,0,0,0,0,0,7.437,7.217880808,7.217848,0,0,0,0,0,148.3,-0.7,-0.2,0,1,1024,1024,1024,1024,0,0,0,0,148.4,0,0,84,3.76,3.716,0,0,0,0,15.603,92.3,6.889796808,6.889764,12,AutoLanding,
15400,4/28/25 22:42:20,4/29/25 5:42,0,0,6.56168,,,6.561712808,0.328084,0,0,0,0,0,7.437,7.217880808,7.217848,0,0,0,0,0,148.3,-0.6,-0.1,0,1,1024,1024,1024,1024,0,0,0,0,148.4,0,0,84,3.76,3.716,0,0,0,0,15.603,92.3,6.561712808,6.56168,12,AutoLanding,
15500,4/28/25 22:42:20,4/29/25 5:42,0,0,6.56168,,,6.561712808,0.328084,0,0,0,0,0,7.539,7.217880808,7.217848,0,0,0,0,0,148.4,-0.7,-0.1,0,1,1024,1024,1024,1024,0,0,0,0,148.4,0,0,83,3.799,3.76,0,0,0,0,12.118,92.48,6.561712808,6.56168,12,AutoLanding,
15600,4/28/25 22:42:20,4/29/25 5:42,0,0,6.56168,,,6.561712808,0.328084,0,0,0,0,0,7.539,7.217880808,7.217848,0,0,0,0,0,148.3,-0.6,0,0,1,1024,1024,1024,1024,0,0,0,0,148.4,0,0,83,3.799,3.76,0,0,0,0,12.118,92.48,6.561712808,6.56168,12,AutoLanding,
15700,4/28/25 22:42:20,4/29/25 5:42,0,0,6.56168,,,6.561712808,0.328084,0,0,0,0,0,7.539,7.217880808,7.217848,0,0,0,0,0,148.4,-0.7,0,0,1,1024,1024,1024,1024,0,0,0,0,148.4,0,0,83,3.799,3.76,0,0,0,0,12.118,92.48,6.561712808,6.56168,12,AutoLanding,
15800,4/28/25 22:42:20,4/29/25 5:42,0,0,6.56168,,,6.561712808,0.328084,0,0,0,0,0,7.539,7.217880808,7.217848,0,0,0,0,0,148.3,-0.7,-0.1,0,1,1024,1024,1024,1024,0,0,0,0,148.4,0,0,83,3.799,3.76,0,0,0,0,12.118,92.48,6.561712808,6.56168,12,AutoLanding,
15900,4/28/25 22:42:20,4/29/25 5:42,0,0,6.56168,,,6.561712808,0.328084,0,0,0,0,0,7.539,7.217880808,7.217848,0,0,0,0,0,148.3,-0.6,-0.2,0,1,1024,1024,1024,1024,0,0,0,0,148.4,0,0,83,3.799,3.76,0,0,0,0,12.118,92.48,6.561712808,6.56168,12,AutoLanding,
16000,4/28/25 22:42:20,4/29/25 5:42,0,0,6.56168,,,6.561712808,0.328084,0,0,0,0,0,7.539,7.217880808,7.217848,0,0,0,0,0,148.1,-1.2,-0.5,0,1,1024,1024,1024,1024,0,0,0,0,148.4,0,0,83,3.799,3.76,0,0,0,0,12.118,92.48,6.561712808,6.56168,12,AutoLanding,
16100,4/28/25 22:42:20,4/29/25 5:42,0,0,6.56168,,,6.561712808,0.328084,0,0,0,0,0,7.539,7.217880808,7.217848,0,0,0,0,0,148.2,-0.8,-0.3,0,1,1024,1024,1024,1024,0,0,0,0,148.4,0,0,83,3.799,3.76,0,0,0,0,12.118,92.48,6.561712808,6.56168,12,AutoLanding,
16200,4/28/25 22:42:21,4/29/25 5:42,0,0,6.56168,,,6.561712808,0.328084,0,0,0,0,0,7.539,7.217880808,7.217848,0,0,0,0,0,148.2,-0.8,-0.2,0,1,1024,1024,1024,1024,0,0,0,0,148.4,0,0,83,3.799,3.76,0,0,0,0,12.118,92.48,6.561712808,6.56168,12,AutoLanding,
16300,4/28/25 22:42:21,4/29/25 5:42,0,0,6.56168,,,6.561712808,0.328084,0,0,0,0,0,7.539,7.217880808,7.217848,0,0,0,0,0,148.2,-0.4,-0.1,0,1,1024,1024,1024,1024,0,0,0,0,148.4,0,0,83,3.799,3.76,0,0,0,0,12.118,92.48,6.561712808,6.56168,12,AutoLanding,
16400,4/28/25 22:42:21,4/29/25 5:42,0,0,6.56168,,,6.561712808,0.328084,0,0,0,0,0,7.539,7.217880808,7.217848,0,0,0,0,0,148.1,0,0,0,1,1024,1024,1024,1024,0,0,0,0,148.4,0,0,83,3.799,3.76,0,0,0,0,12.118,92.48,6.561712808,6.56168,12,AutoLanding,
16500,4/28/25 22:42:21,4/29/25 5:42,0,0,6.56168,,,6.561712808,0.328084,0,0,0,0,0,7.606,7.217880808,7.217848,0,0,0,0,0,148.1,-0.2,0,0,1,1024,1024,1024,1024,0,0,0,0,148.4,0,0,83,3.829,3.793,0,0,0,0,10.421,92.84,6.561712808,6.56168,12,AutoLanding,
16600,4/28/25 22:42:21,4/29/25 5:42,0,0,6.56168,,,6.561712808,0.328084,0,0,0,0,0,7.606,7.217880808,7.217848,0,0,0,0,0,148.2,-0.1,-0.1,0,1,1024,1024,1024,1024,0,0,0,0,148.4,0,0,83,3.829,3.793,0,0,0,0,10.421,92.84,6.561712808,6.56168,12,AutoLanding,
16700,4/28/25 22:42:21,4/29/25 5:42,0,0,6.56168,,,6.561712808,0.328084,0,0,0,0,0,7.606,7.217880808,7.217848,0,0,0,0,0,148.3,-0.2,-0.1,0,1,1024,1024,1024,1024,0,0,0,0,148.4,0,0,83,3.829,3.793,0,0,0,0,10.421,92.84,6.561712808,6.56168,12,AutoLanding,
16800,4/28/25 22:42:21,4/29/25 5:42,0,0,6.56168,,,6.561712808,0.328084,0,0,0,0,0,7.606,7.217880808,7.217848,0,0,0,0,0,148.2,-0.4,-0.2,0,1,1024,1024,1024,1024,0,0,0,0,148.4,0,0,83,3.829,3.793,0,0,0,0,10.421,92.84,6.561712808,6.56168,12,AutoLanding,
16900,4/28/25 22:42:21,4/29/25 5:42,0,0,6.233596,,,6.233628808,0.328084,0,0,0,0,0,7.606,7.217880808,7.217848,0,0,0,0,0,148.3,-0.3,-0.2,0,1,1024,1024,1024,1024,0,0,0,0,148.4,0,0,83,3.829,3.793,0,0,0,0,10.421,92.84,6.233628808,6.233596,12,AutoLanding,
17000,4/28/25 22:42:21,4/29/25 5:42,0,0,6.233596,,,6.233628808,0.328084,0,0,0,0,0,7.606,7.217880808,7.217848,0,0,0,0,0,148.1,-0.2,0,0,1,1024,1024,1024,1024,0,0,0,0,148.4,0,0,83,3.829,3.793,0,0,0,0,10.421,92.84,6.233628808,6.233596,12,AutoLanding,
17100,4/28/25 22:42:21,4/29/25 5:42,0,0,6.233596,,,6.233628808,0.328084,0,0,0,0,0,7.606,7.217880808,7.217848,0,0,0,0,0,148.2,0,0,0,1,1024,1024,1024,1024,0,0,0,0,148.4,0,0,83,3.829,3.793,0,0,0,0,10.421,92.84,6.233628808,6.233596,12,AutoLanding,
17200,4/28/25 22:42:22,4/29/25 5:42,0,0,6.233596,,,6.233628808,0.328084,0,0,0,0,0,7.606,7.217880808,7.217848,0,0,0,0,0,148.2,-0.2,0.1,0,1,1024,1024,1024,1024,0,0,0,0,148.4,0,0,83,3.829,3.793,0,0,0,0,10.421,92.84,6.233628808,6.233596,12,AutoLanding,
17300,4/28/25 22:42:22,4/29/25 5:42,0,0,6.233596,,,6.233628808,0.328084,0,0,0,0,0,7.606,7.217880808,7.217848,0,0,0,0,0,148.1,-0.3,-0.1,0,1,1024,1024,1024,1024,0,0,0,0,148.4,0,0,83,3.829,3.793,0,0,0,0,10.421,92.84,6.233628808,6.233596,12,AutoLanding,
17400,4/28/25 22:42:22,4/29/25 5:42,0,0,6.233596,,,6.233628808,0.328084,0,0,0,0,0,7.606,7.217880808,7.217848,0,0,0,0,0,148,0,0,0,1,1024,1024,1024,1024,0,0,0,0,148.4,0,0,83,3.829,3.793,0,0,0,0,10.421,92.84,6.233628808,6.233596,12,AutoLanding,
17500,4/28/25 22:42:22,4/29/25 5:42,0,0,6.233596,,,6.233628808,0.328084,0,0,0,0,0,7.651,7.217880808,7.217848,0,0,0,0,0,148.1,0,-0.1,0,1,1024,1024,1024,1024,0,0,0,0,148.4,0,0,83,3.84,3.803,0,0,0,0,9.364,93.02,6.233628808,6.233596,12,AutoLanding,
17600,4/28/25 22:42:22,4/29/25 5:42,0,0,5.905512,,,5.905544808,0.328084,0,0,0,0,0,7.651,7.217880808,7.217848,0,0,0,0,0,148,-0.1,-0.2,0,1,1024,1024,1024,1024,0,0,0,0,148.4,0,0,83,3.84,3.803,0,0,0,0,9.364,93.02,5.905544808,5.905512,12,AutoLanding,
17700,4/28/25 22:42:22,4/29/25 5:42,0,0,5.905512,,,5.905544808,0.328084,0,0,0,0,0,7.651,7.217880808,7.217848,0,0,0,0,0,148.1,0,0.3,0,1,1024,1024,1024,1024,0,0,0,0,148.4,0,0,83,3.84,3.803,0,0,0,0,9.364,93.02,5.905544808,5.905512,12,AutoLanding,
17800,4/28/25 22:42:22,4/29/25 5:42,0,0,5.905512,,,5.905544808,0.328084,0,0,0,0,0,7.651,7.217880808,7.217848,0,0,0,0,0,148.1,0,-0.1,0,1,1024,1024,1024,1024,0,0,0,0,148.4,0,0,83,3.84,3.803,0,0,0,0,9.364,93.02,5.905544808,5.905512,12,AutoLanding,
17900,4/28/25 22:42:22,4/29/25 5:42,0,0,5.905512,,,5.905544808,0.328084,0,0,0,0,0,7.651,7.217880808,7.217848,0,0,0,0,0,148.1,0.2,0,0,1,1024,1024,1024,1024,0,0,0,0,148.4,0,0,83,3.84,3.803,0,0,0,0,9.364,93.02,5.905544808,5.905512,12,AutoLanding,
18000,4/28/25 22:42:22,4/29/25 5:42,0,0,5.905512,,,5.905544808,0.328084,0,0,0,0,0,7.651,7.217880808,7.217848,0,0,0,0,0,148.2,0.3,0,0,1,1024,1024,1024,1024,0,0,0,0,148.4,0,0,83,3.84,3.803,0,0,0,0,9.364,93.02,5.905544808,5.905512,12,AutoLanding,
18100,4/28/25 22:42:22,4/29/25 5:42,0,0,5.905512,,,5.905544808,0.328084,0,0,0,0,0,7.651,7.217880808,7.217848,0,0,0,0,0,148.3,0.4,0.2,0,1,1024,1024,1024,1024,0,0,0,0,148.4,0,0,83,3.84,3.803,0,0,0,0,9.364,93.02,5.905544808,5.905512,12,AutoLanding,
18200,4/28/25 22:42:23,4/29/25 5:42,0,0,5.905512,,,5.905544808,0.328084,0,0,0,0,0,7.651,7.217880808,7.217848,0,0,0,0,0,148.4,0.3,0,0,1,1024,1024,1024,1024,0,0,0,0,148.4,0,0,83,3.84,3.803,0,0,0,0,9.364,93.02,5.905544808,5.905512,12,AutoLanding,
18300,4/28/25 22:42:23,4/29/25 5:42,0,0,5.905512,,,5.905544808,0.328084,0,0,0,0,0,7.651,7.217880808,7.217848,0,0,0,0,0,148.4,0,0,0,1,1024,1024,1024,1024,0,0,0,0,148.4,0,0,83,3.84,3.803,0,0,0,0,9.364,93.02,5.905544808,5.905512,12,AutoLanding,
18400,4/28/25 22:42:23,4/29/25 5:42,0,0,5.905512,,,5.905544808,0.328084,0,0,0,0,0,7.651,7.217880808,7.217848,0,0,0,0,0,148.3,0.2,0.1,0,1,1024,1024,1024,1024,0,0,0,0,148.4,0,0,83,3.84,3.803,0,0,0,0,9.364,93.02,5.905544808,5.905512,12,AutoLanding,
18500,4/28/25 22:42:23,4/29/25 5:42,0,0,5.905512,,,5.905544808,0.328084,0,0,0,0,0,7.602,7.217880808,7.217848,0,0,0,0,0,148.3,-0.1,0,0,1,1024,1024,1024,1024,0,0,0,0,148.4,0,0,83,3.815,3.777,0,0,0,0,10.03,93.38,5.905544808,5.905512,12,AutoLanding,
18600,4/28/25 22:42:23,4/29/25 5:42,0,0,5.905512,,,5.905544808,0.328084,0,0,0,0,0,7.602,7.217880808,7.217848,0,0,0,0,0,148.2,0.5,-0.6,0,1,1024,1024,1024,1024,0,0,0,0,148.4,0,0,83,3.815,3.777,0,0,0,0,10.03,93.38,5.905544808,5.905512,12,AutoLanding,
18700,4/28/25 22:42:23,4/29/25 5:42,0,0,5.905512,,,5.905544808,0.328084,0,0,0,0,0,7.602,7.217880808,7.217848,0,0,0,0,0,148,1.1,-1,0,1,1024,1024,1024,1024,0,0,0,0,148.4,0,0,83,3.815,3.777,0,0,0,0,10.03,93.38,5.905544808,5.905512,12,AutoLanding,
18800,4/28/25 22:42:23,4/29/25 5:42,0,0,5.905512,,,5.905544808,0.328084,0,0,0,0,0,7.602,7.217880808,7.217848,0,0,0,0,0,148.1,0.6,-1.4,0,1,1024,1024,1024,1024,0,0,0,0,148.4,0,0,83,3.815,3.777,0,0,0,0,10.03,93.38,5.905544808,5.905512,12,AutoLanding,
18900,4/28/25 22:42:23,4/29/25 5:42,0,0,5.905512,,,5.905544808,0.328084,0,0,0,0,0,7.602,7.217880808,7.217848,0,0,0,0,0,148.2,0.1,-1.4,0,1,1024,1024,1024,1024,0,0,0,0,148.4,0,0,83,3.815,3.777,0,0,0,0,10.03,93.38,5.905544808,5.905512,12,AutoLanding,
19000,4/28/25 22:42:23,4/29/25 5:42,0,0,5.905512,,,5.905544808,0.328084,0,0,0,0,0,7.602,7.217880808,7.217848,0,0,0,0,0,148.3,-0.5,0.3,0,1,1024,1024,1024,1024,0,0,0,0,148.4,0,0,83,3.815,3.777,0,0,0,0,10.03,93.38,5.905544808,5.905512,12,AutoLanding,
19100,4/28/25 22:42:23,4/29/25 5:42,0,0,5.905512,,,5.905544808,0.328084,0,0,0,0,0,7.602,7.217880808,7.217848,0,0,0,0,0,148.3,-0.3,0.5,0,1,1024,1024,1024,1024,0,0,0,0,148.4,0,0,83,3.815,3.777,0,0,0,0,10.03,93.38,5.905544808,5.905512,12,AutoLanding,
19200,4/28/25 22:42:24,4/29/25 5:42,0,0,5.905512,,,5.905544808,0.328084,0,0,0,0,0,7.602,7.217880808,7.217848,0,0,0,0,0,148,-0.4,0.4,0,1,1024,1024,1024,1024,0,0,0,0,148.4,0,0,83,3.815,3.777,0,0,0,0,10.03,93.38,5.905544808,5.905512,12,AutoLanding,
19300,4/28/25 22:42:24,4/29/25 5:42,0,0,5.905512,,,5.905544808,0.328084,0,0,0,0,0,7.602,7.217880808,7.217848,0,0,0,0,0,147.9,-1.1,0.6,0,1,1024,1024,1024,1024,0,0,0,0,148.4,0,0,83,3.815,3.777,0,0,0,0,10.03,93.38,5.905544808,5.905512,12,AutoLanding,
19400,4/28/25 22:42:24,4/29/25 5:42,0,0,5.905512,,,5.905544808,0.328084,0,0,0,0,0,7.602,7.217880808,7.217848,0,0,0,0,0,148,-0.2,-0.1,0,1,1024,1024,1024,1024,0,0,0,0,148.4,0,0,83,3.815,3.777,0,0,0,0,10.03,93.38,5.905544808,5.905512,12,AutoLanding,
19500,4/28/25 22:42:24,4/29/25 5:42,0,0,5.905512,,,5.905544808,0.328084,0,0,0,0,0,7.594,7.217880808,7.217848,0,0,0,0,0,148.3,1,0.2,0,1,1024,1024,1024,1024,0,0,0,0,148.4,0,0,83,3.81,3.773,0,0,0,0,10.635,93.74,5.905544808,5.905512,12,AutoLanding,
19600,4/28/25 22:42:24,4/29/25 5:42,0,0,5.905512,,,5.905544808,0.328084,0,0,0,0,0,7.594,7.217880808,7.217848,0,0,0,0,0,148.2,0.3,0.2,0,1,1024,1024,1024,1024,0,0,0,0,148.4,0,0,83,3.81,3.773,0,0,0,0,10.635,93.74,5.905544808,5.905512,12,AutoLanding,
19700,4/28/25 22:42:24,4/29/25 5:42,0,0,5.905512,,,5.905544808,0.328084,0,0,0,0,0,7.594,7.217880808,7.217848,0,0,0,0,0,148.3,0.2,0,0,1,1024,1024,1024,1024,0,0,0,0,148.4,0,0,83,3.81,3.773,0,0,0,0,10.635,93.74,5.905544808,5.905512,12,AutoLanding,
19800,4/28/25 22:42:24,4/29/25 5:42,0,0,5.905512,,,5.905544808,0.328084,0,0,0,0,0,7.594,7.217880808,7.217848,0,0,0,0,0,148.2,0.4,0,0,1,1024,1024,1024,1024,0,0,0,0,148.4,0,0,83,3.81,3.773,0,0,0,0,10.635,93.74,5.905544808,5.905512,12,AutoLanding,
19900,4/28/25 22:42:24,4/29/25 5:42,0,0,5.905512,,,5.905544808,0.328084,0,0,0,0,0,7.594,7.217880808,7.217848,0,0,0,0,0,148.2,0,0.1,0,1,1024,1024,1024,1024,0,0,0,0,148.4,0,0,83,3.81,3.773,0,0,0,0,10.635,93.74,5.905544808,5.905512,12,AutoLanding,
20000,4/28/25 22:42:24,4/29/25 5:42,0,0,5.905512,,,5.905544808,0.328084,0,0,0,0,0,7.594,7.217880808,7.217848,0,0,0,0,0,148.3,0.1,0.1,0,1,1024,1024,1024,1024,0,0,0,0,148.4,0,0,83,3.81,3.773,0,0,0,0,10.635,93.74,5.905544808,5.905512,12,AutoLanding,
20100,4/28/25 22:42:24,4/29/25 5:42,0,0,5.905512,,,5.905544808,0.328084,0,0,0,0,0,7.594,7.217880808,7.217848,0,0,0,0,0,148.4,0.5,0.3,0,1,1024,1024,1024,1024,0,0,0,0,148.4,0,0,83,3.81,3.773,0,0,0,0,10.635,93.74,5.905544808,5.905512,12,AutoLanding,
20200,4/28/25 22:42:25,4/29/25 5:42,0,0,5.905512,,,5.905544808,0.328084,0,0,0,0,0,7.594,7.217880808,7.217848,0,0,0,0,0,148.4,0.5,0.5,0,1,1024,1024,1024,1024,0,0,0,0,148.4,0,0,83,3.81,3.773,0,0,0,0,10.635,93.74,5.905544808,5.905512,12,AutoLanding,
20300,4/28/25 22:42:25,4/29/25 5:42,0,0,5.905512,,,5.905544808,0.328084,0,0,0,0,0,7.594,7.217880808,7.217848,0,0,0,0,0,148.3,0.1,0,0,1,1024,1024,1024,1024,0,0,0,0,148.4,0,0,83,3.81,3.773,0,0,0,0,10.635,93.74,5.905544808,5.905512,12,AutoLanding,
20400,4/28/25 22:42:25,4/29/25 5:42,0,0,5.905512,,,5.905544808,0.328084,0,0,0,0,0,7.594,7.217880808,7.217848,0,0,0,0,0,148.3,0.3,0.1,0,1,1024,1024,1024,1024,0,0,0,0,148.4,0,0,83,3.81,3.773,0,0,0,0,10.635,93.74,5.905544808,5.905512,12,AutoLanding,
20500,4/28/25 22:42:25,4/29/25 5:42,0,0,5.905512,,,5.905544808,0.328084,0,0,0,0,0,7.583,7.217880808,7.217848,0,0,0,0,0,148.3,0.2,0,0,1,1024,1024,1024,1024,0,0,0,0,148.4,0,0,83,3.813,3.776,0,0,0,0,10.77,93.92,5.905544808,5.905512,12,AutoLanding,
20600,4/28/25 22:42:25,4/29/25 5:42,0,0,5.905512,,,5.905544808,0.328084,0,0,0,0,0,7.583,7.217880808,7.217848,0,0,0,0,0,148.2,0.4,0,0,1,1024,1024,1024,1024,0,0,0,0,148.4,0,0,83,3.813,3.776,0,0,0,0,10.77,93.92,5.905544808,5.905512,12,AutoLanding,
20700,4/28/25 22:42:25,4/29/25 5:42,0,0,5.905512,,,5.905544808,0.328084,0,0,0,0,0,7.583,7.217880808,7.217848,0,0,0,0,0,148.1,0.1,0,0,1,1024,1024,1024,1024,0,0,0,0,148.4,0,0,83,3.813,3.776,0,0,0,0,10.77,93.92,5.905544808,5.905512,12,AutoLanding,
20800,4/28/25 22:42:25,4/29/25 5:42,0,0,5.905512,,,5.905544808,0.328084,0,0,0,0,0,7.583,7.217880808,7.217848,0,0,0,0,0,148.1,-0.1,-0.4,0,1,1024,1024,1024,1024,0,0,0,0,148.4,0,0,83,3.813,3.776,0,0,0,0,10.77,93.92,5.905544808,5.905512,12,AutoLanding,
20900,4/28/25 22:42:25,4/29/25 5:42,0,0,5.905512,,,5.905544808,0.328084,0,0,0,0,0,7.583,7.217880808,7.217848,0,0,0,0,0,148.1,-0.1,-0.5,0,1,1024,1024,1024,1024,0,0,0,0,148.4,0,0,83,3.813,3.776,0,0,0,0,10.77,93.92,5.905544808,5.905512,12,AutoLanding,
21000,4/28/25 22:42:25,4/29/25 5:42,0,0,5.905512,,,5.905544808,0.328084,0,0,0,0,0,7.583,7.217880808,7.217848,0,0,0,0,0,148.1,0.4,0,0,1,1024,1024,1024,1024,0,0,0,0,148.4,0,0,83,3.813,3.776,0,0,0,0,10.77,93.92,5.905544808,5.905512,12,AutoLanding,
21100,4/28/25 22:42:25,4/29/25 5:42,0,0,5.905512,,,5.905544808,0.328084,0,0,0,0,0,7.583,7.217880808,7.217848,0,0,0,0,0,148,0.2,0,0,1,1024,1024,1024,1024,0,0,0,0,148.4,0,0,83,3.813,3.776,0,0,0,0,10.77,93.92,5.905544808,5.905512,12,AutoLanding,
21200,4/28/25 22:42:25,4/29/25 5:42,0,0,5.905512,,,5.905544808,0.328084,0,0,0,0,0,7.583,7.217880808,7.217848,0,0,0,0,0,148.1,0.2,-0.2,0,1,1024,1024,1024,1024,0,0,0,0,148.4,0,0,83,3.813,3.776,0,0,0,0,10.77,93.92,5.905544808,5.905512,12,AutoLanding,
21300,4/28/25 22:42:26,4/29/25 5:42,0,0,5.905512,,,5.905544808,0.328084,0,0,0,0,0,7.583,7.217880808,7.217848,0,0,0,0,0,148.4,0.3,0.2,0,1,1024,1024,1024,1024,0,0,0,0,148.4,0,0,83,3.813,3.776,0,0,0,0,10.77,93.92,5.905544808,5.905512,12,AutoLanding,
21400,4/28/25 22:42:26,4/29/25 5:42,0,0,5.905512,,,5.905544808,0.328084,0,0,0,0,0,7.583,7.217880808,7.217848,0,0,0,0,0,148.3,0.3,0.4,0,1,1024,1024,1024,1024,0,0,0,0,148.4,0,0,83,3.813,3.776,0,0,0,0,10.77,93.92,5.905544808,5.905512,12,AutoLanding,
21500,4/28/25 22:42:26,4/29/25 5:42,0,0,5.905512,,,5.905544808,0.328084,0,0,0,0,0,7.594,7.217880808,7.217848,0,0,0,0,0,148.4,0,0.1,0,1,1024,1024,1024,1024,0,0,0,0,148.4,0,0,82,3.816,3.779,0,0,0,0,10.411,94.28,5.905544808,5.905512,12,AutoLanding,
21600,4/28/25 22:42:26,4/29/25 5:42,0,0,5.905512,,,5.905544808,0.328084,0,0,0,0,0,7.594,7.217880808,7.217848,0,0,0,0,0,148.4,0,0.2,0,1,1024,1024,1024,1024,0,0,0,0,148.4,0,0,82,3.816,3.779,0,0,0,0,10.411,94.28,5.905544808,5.905512,12,AutoLanding,
21700,4/28/25 22:42:26,4/29/25 5:42,0,0,5.905512,,,5.905544808,0.328084,0,0,0,0,0,7.594,7.217880808,7.217848,0,0,0,0,0,148.4,0,0.2,0,1,1024,1024,1024,1024,0,0,0,0,148.4,0,0,82,3.816,3.779,0,0,0,0,10.411,94.28,5.905544808,5.905512,12,AutoLanding,
21800,4/28/25 22:42:26,4/29/25 5:42,0,0,5.905512,,,5.905544808,0.328084,0,0,0,0,0,7.594,7.217880808,7.217848,0,0,0,0,0,148.6,0.1,0.2,0,1,1024,1024,1024,1024,0,0,0,0,148.4,0,0,82,3.816,3.779,0,0,0,0,10.411,94.28,5.905544808,5.905512,12,AutoLanding,
21900,4/28/25 22:42:26,4/29/25 5:42,0,0,5.905512,,,5.905544808,0.328084,0,0,0,0,0,7.594,7.217880808,7.217848,0,0,0,0,0,148.6,-0.1,-0.3,0,1,1024,1024,1024,1024,0,0,0,0,148.4,0,0,82,3.816,3.779,0,0,0,0,10.411,94.28,5.905544808,5.905512,12,AutoLanding,
22000,4/28/25 22:42:26,4/29/25 5:42,0,0,5.905512,,,5.905544808,0.328084,0,0,0,0,0,7.594,7.217880808,7.217848,0,0,0,0,0,148.5,0.3,-0.1,0,1,1024,1024,1024,1024,0,0,0,0,148.4,0,0,82,3.816,3.779,0,0,0,0,10.411,94.28,5.905544808,5.905512,12,AutoLanding,
22100,4/28/25 22:42:26,4/29/25 5:42,0,0,5.905512,,,5.905544808,0.328084,0,0,0,0,0,7.594,7.217880808,7.217848,0,0,0,0,0,148.5,0.2,-0.3,0,1,1024,1024,1024,1024,0,0,0,0,148.4,0,0,82,3.816,3.779,0,0,0,0,10.411,94.28,5.905544808,5.905512,12,AutoLanding,
22200,4/28/25 22:42:27,4/29/25 5:42,0,0,5.905512,,,5.905544808,0.328084,0,0,0,0,0,7.594,7.217880808,7.217848,0,0,0,0,0,148.7,0.2,-0.2,0,1,1024,1024,1024,1024,0,0,0,0,148.4,0,0,82,3.816,3.779,0,0,0,0,10.411,94.28,5.905544808,5.905512,12,AutoLanding,
22300,4/28/25 22:42:27,4/29/25 5:42,0,0,5.905512,,,5.905544808,0.328084,0,0,0,0,0,7.594,7.217880808,7.217848,0,0,0,0,0,148.5,0.4,-0.1,0,1,1024,1024,1024,1024,0,0,0,0,148.4,0,0,82,3.816,3.779,0,0,0,0,10.411,94.28,5.905544808,5.905512,12,AutoLanding,
22400,4/28/25 22:42:27,4/29/25 5:42,0,0,5.905512,,,5.905544808,0.328084,0,0,0,0,0,7.594,7.217880808,7.217848,0,0,0,0,0,148.5,0.1,-0.4,0,1,1024,1024,1024,1024,0,0,0,0,148.4,0,0,82,3.816,3.779,0,0,0,0,10.411,94.28,5.905544808,5.905512,12,AutoLanding,
22500,4/28/25 22:42:27,4/29/25 5:42,0,0,5.905512,,,5.905544808,0.328084,0,0,0,0,0,7.608,7.217880808,7.217848,0,0,0,0,0,148.6,0.2,-0.2,0,1,1024,1024,1024,1024,0,0,0,0,148.4,0,0,82,3.817,3.78,0,0,0,0,10.09,94.64,5.905544808,5.905512,33,Confirm_Landing,
22600,4/28/25 22:42:27,4/29/25 5:42,0,0,5.905512,,,5.905544808,0.328084,0,0,0,0,0,7.608,7.217880808,7.217848,0,0,0,0,0,148.5,0.4,0.1,0,1,1024,1024,1024,1024,0,0,0,0,148.4,0,0,82,3.817,3.78,0,0,0,0,10.09,94.64,5.905544808,5.905512,33,Confirm_Landing,
22700,4/28/25 22:42:27,4/29/25 5:42,0,0,5.905512,,,5.905544808,0.328084,0,0,0,0,0,7.608,7.217880808,7.217848,0,0,0,0,0,148.5,0.5,0,0,1,1024,1024,1024,1024,0,0,0,0,148.4,0,0,82,3.817,3.78,0,0,0,0,10.09,94.64,5.905544808,5.905512,33,Confirm_Landing,
22800,4/28/25 22:42:27,4/29/25 5:42,0,0,5.905512,,,5.905544808,0.328084,0,0,0,0,0,7.608,7.217880808,7.217848,0,0,0,0,0.223694,148.3,0.4,-0.1,0,1,1024,1024,985,1024,0,0,-6,0,148.4,0,0,82,3.817,3.78,0,0,0,0,10.09,94.64,5.905544808,5.905512,33,Confirm_Landing,
22900,4/28/25 22:42:27,4/29/25 5:42,0,0,5.905512,,,5.905544808,0.328084,0,0,0,0,0,7.608,7.217880808,7.217848,0,0,0,0,0.223694,148.5,-0.1,0.4,0,1,1024,1024,473,1024,0,0,-83,0,148.4,0,0,82,3.817,3.78,0,0,0,0,10.09,94.64,5.905544808,5.905512,33,Confirm_Landing,
23000,4/28/25 22:42:27,4/29/25 5:42,0,0,5.905512,,,5.905544808,0.328084,0,0,0,0,0,7.608,7.217880808,7.217848,0,0,0,0,0.447388,148.6,0.1,0.5,0,1,1024,1024,364,1024,0,0,-100,0,148.4,0,0,82,3.817,3.78,0,0,0,0,10.09,94.64,5.905544808,5.905512,33,Confirm_Landing,
23100,4/28/25 22:42:27,4/29/25 5:42,0,0,5.905512,,,5.905544808,0.328084,0,0,0,0,0,7.608,7.217880808,7.217848,0,0,0,0,0.447388,148.5,0.3,1.1,0,1,1024,1024,364,1024,0,0,-100,0,148.4,0,0,82,3.817,3.78,0,0,0,0,10.09,94.64,5.905544808,5.905512,33,Confirm_Landing,
23200,4/28/25 22:42:28,4/29/25 5:42,0,0,5.577428,,,5.577460808,0,0,0,0,0,0,7.608,7.217880808,7.217848,0,0,0,0,0.447388,148.6,0.3,0.9,0,1,1024,1024,364,1024,0,0,-100,0,148.4,0,0,82,3.817,3.78,0,0,0,0,10.09,94.64,5.577460808,5.577428,33,Confirm_Landing,
23300,4/28/25 22:42:28,4/29/25 5:42,0,0,5.577428,,,5.577460808,0,0,0,0,0,0,7.608,7.217880808,7.217848,0,0,0,0,0.447388,148.5,0.4,0.8,0,1,1024,1024,364,1024,0,0,-100,0,148.4,0,0,82,3.817,3.78,0,0,0,0,10.09,94.64,5.577460808,5.577428,33,Confirm_Landing,
23400,4/28/25 22:42:28,4/29/25 5:42,0,0,5.577428,,,5.577460808,0,0,0,0,0,0,7.608,7.217880808,7.217848,0,0,0,0,0.447388,148.5,0.2,0.7,0,1,1024,1024,364,1024,0,0,-100,0,148.4,0,0,82,3.817,3.78,0,0,0,0,10.09,94.64,5.577460808,5.577428,33,Confirm_Landing,
23500,4/28/25 22:42:28,4/29/25 5:42,0,0,5.577428,,,5.577460808,0,0,0,0,0,0,7.588,7.217880808,7.217848,0,0,0,0,0.447388,148.5,0.4,0.5,0,1,1024,1024,364,1024,0,0,-100,0,148.4,0,0,82,3.831,3.794,0,0,0,0,10.367,94.82,5.577460808,5.577428,33,Confirm_Landing,
23600,4/28/25 22:42:28,4/29/25 5:42,0,0,5.577428,,,5.577460808,0,0,0,0,0,0,7.588,7.217880808,7.217848,0,0,0,0,0.447388,148.4,0.4,0.5,0,1,1024,1024,364,1024,0,0,-100,0,148.4,0,0,82,3.831,3.794,0,0,0,0,10.367,94.82,5.577460808,5.577428,33,Confirm_Landing,
23700,4/28/25 22:42:28,4/29/25 5:42,0,0,5.249344,,,5.249376808,0,0,0,0,0,0,7.588,7.217880808,7.217848,0,0,0,0,0.671082,132.9,8.3,-29.2,0,1,1024,1024,364,1024,0,0,-100,0,130.9,-8.9,-7,82,3.831,3.794,0,0,0,0,10.367,94.82,5.249376808,5.249344,33,Confirm_Landing,
23800,4/28/25 22:42:28,4/29/25 5:42,0,0,5.249344,,,5.249376808,0,0,0,0,0,0,7.588,7.217880808,7.217848,0,0,0,0,1.342164,79.9,19.4,-20.5,0,1,1024,1024,364,1024,0,0,-100,0,109.4,-6.7,-22.6,82,3.831,3.794,0,0,0,0,10.367,94.82,5.249376808,5.249344,33,Confirm_Landing,
23900,4/28/25 22:42:28,4/29/25 5:42,0,0,4.92126,,,4.921292808,0,0,0,0,0,0,7.588,7.217880808,7.217848,0,0,0,0,1.342164,76.7,25.5,6.7,0,1,1024,1024,713,1024,0,0,-47,0,98.7,11.1,-11.6,82,3.831,3.794,0,0,0,0,10.367,94.82,4.921292808,4.92126,33,Confirm_Landing,
24000,4/28/25 22:42:28,4/29/25 5:42,0,0,4.92126,,,4.921292808,0,0,0,0,0,0,7.588,7.217880808,7.217848,0,0,0,0,1.342164,63,6.3,11.5,0,1,1024,1024,713,1024,0,0,-47,0,98.7,11.1,-11.6,82,3.831,3.794,0,0,0,0,10.367,94.82,4.921292808,4.92126,1,Atti,