time(millisecond),datetime(utc),latitude,longitude,height_above_takeoff(feet),height_above_ground_at_drone_location(feet),ground_elevation_at_drone_location(feet),altitude_above_seaLevel(feet),height_sonar(feet),speed(mph),distance(feet),mileage(feet),satellites,gpslevel,voltage(v),max_altitude(feet),max_ascent(feet),max_speed(mph),max_distance(feet), xSpeed(mph), ySpeed(mph), zSpeed(mph), compass_heading(degrees), pitch(degrees), roll(degrees),isPhoto,isVideo,rc_elevator,rc_aileron,rc_throttle,rc_rudder,rc_elevator(percent),rc_aileron(percent),rc_throttle(percent),rc_rudder(percent),gimbal_heading(degrees),gimbal_pitch(degrees),gimbal_roll(degrees),battery_percent,voltageCell1,voltageCell2,voltageCell3,voltageCell4,voltageCell5,voltageCell6,current(A),battery_temperature(f),altitude(feet),ascent(feet),flycStateRaw,flycState,message
0,2025-04-22 04:57:07,0,0,0,Available with any HD 360 subscription,Available with any HD 360 subscription,175.70349742041,0.656168,0,0,0,13,2,0,175.70349742041,0,0,0,0,0,0,344.6, 3, 0.1,0,1,1024,1024,1024,1024,0,0,0,0,333,0,0,45,3.705,3.701,0,0,0,0,0,72.68,175.70349742041,0,41,Motors_Started,"No satellite positioning. Fly with caution Satellite positioning signal weak. Hovering unstable. Fly with caution (Code: 30002)"
100,2025-04-22 04:57:08,0,0,0,,,175.70349742041,0.656168,0,0,0,13,2,0,175.70349742041,0,0,0,0,0,0,344.7, 3, 0,0,1,1024,1024,1024,1024,0,0,0,0,333,0,0,45,3.705,3.701,0,0,0,0,0,72.68,175.70349742041,0,41,Motors_Started,
200,2025-04-22 04:57:08,0,0,0,,,175.70349742041,0.328084,0,0,0,13,2,0,175.70349742041,0,0,0,0,0,0,344.6, 3, 0.1,0,1,1024,1024,1024,1024,0,0,0,0,332.9,0,0,45,3.705,3.701,0,0,0,0,0,72.68,175.70349742041,0,41,Motors_Started,"Aircraft in Warning Zone (Airport). Fly with caution"
300,2025-04-22 04:57:08,0,0,0,,,175.70349742041,0.328084,0,0,0,13,2,0,175.70349742041,0,0,0,0,0,0,344.7, 3, 0.1,0,1,1024,1024,1024,1024,0,0,0,0,333,0,0,45,3.705,3.701,0,0,0,0,0,72.68,175.70349742041,0,41,Motors_Started,
400,2025-04-22 04:57:08,0,0,0,,,175.70349742041,0.328084,0,0,0,13,2,0,175.70349742041,0,0,0,0,0,0,344.7, 3, 0.1,0,1,1024,1024,1024,1024,0,0,0,0,333,0,0,45,3.705,3.701,0,0,0,0,0,72.68,175.70349742041,0,41,Motors_Started,
500,2025-04-22 04:57:08,0,0,0,,,175.70349742041,0.328084,0,0,0,13,2,0,175.70349742041,0,0,0,0,0,0,344.7, 3, 0.1,0,1,1024,1024,1024,1024,0,0,0,0,332.9,0,0,45,3.705,3.701,0,0,0,0,0,72.68,175.70349742041,0,41,Motors_Started,
600,2025-04-22 04:57:08,0,0,0,,,175.70349742041,0.328084,0,0,0,13,2,0,175.70349742041,0,0,0,0,0,0,344.7, 3, 0,0,1,1024,1024,1024,1024,0,0,0,0,333,0,0,45,3.705,3.701,0,0,0,0,0,72.68,175.70349742041,0,41,Motors_Started,
700,2025-04-22 04:57:08,0,0,0,,,175.70349742041,0.328084,0,0,0,13,2,0,175.70349742041,0,0,0,0,0,0,344.7, 3, 0,0,1,1024,1024,1024,1024,0,0,0,0,332.9,0,0,45,3.705,3.701,0,0,0,0,0,72.68,175.70349742041,0,41,Motors_Started,"Setting new Return-To-Home altitude to 15m (49 ft). Data Recorder File Index is 34. Setting new Maximum Flight Altitude to 30m (98 ft)"
800,2025-04-22 04:57:08,0,0,0,,,175.70349742041,0.328084,0,0,0,13,2,0,175.70349742041,0,0,0,0,0,0,344.7, 3, 0.1,0,1,1024,1024,1024,1024,0,0,0,0,333,0,0,45,3.705,3.701,0,0,0,0,0,72.68,175.70349742041,0,41,Motors_Started,
900,2025-04-22 04:57:08,0,0,0,,,175.70349742041,0.328084,0,0,0,13,2,0,175.70349742041,0,0,0,0,0,0,344.7, 3, 0.1,0,1,1024,1024,1024,1024,0,0,0,0,332.9,0,0,45,3.705,3.701,0,0,0,0,0,72.68,175.70349742041,0,41,Motors_Started,
1000,2025-04-22 04:57:08,0,0,0,,,175.70349742041,0.328084,0,0,0,13,2,0,175.70349742041,0,0,0,0,0,0,344.7, 3.1, 0,0,1,1024,1024,1024,1024,0,0,0,0,333,0,0,45,3.705,3.701,0,0,0,0,0,72.68,175.70349742041,0,41,Motors_Started,
1100,2025-04-22 04:57:09,0,0,0,,,175.70349742041,0.328084,0,0,0,13,2,7.544,175.70349742041,0,0,0,0,0,0,344.7, 3.1, 0,0,1,1024,1024,1024,1024,0,0,0,0,332.9,0,0,45,3.705,3.701,0,0,0,0,0.878,72.68,175.70349742041,0,11,AutoTakeoff,
1200,2025-04-22 04:57:09,0,0,0,,,175.70349742041,0.328084,0,0,0,13,2,7.544,175.70349742041,0,0,0,0,0,0,344.8, 3.1, 0,0,1,1024,1024,1024,1024,0,0,0,0,332.9,0,0,45,3.705,3.701,0,0,0,0,0.878,72.68,175.70349742041,0,11,AutoTakeoff,
1300,2025-04-22 04:57:09,0,0,0,,,175.70349742041,0.328084,0,0,0,14,2,7.544,175.70349742041,0,0,0,0,0,0,344.7, 3.1, 0,0,1,1024,1024,1024,1024,0,0,0,0,332.9,0,0,45,3.705,3.701,0,0,0,0,0.878,72.68,175.70349742041,0,11,AutoTakeoff,
1400,2025-04-22 04:57:09,0,0,0,,,175.70349742041,0.328084,0,0,0,14,2,7.544,175.70349742041,0,0,0,0,0,0,344.7, 3, 0,0,1,1024,1024,1024,1024,0,0,0,0,332.9,0,0,45,3.705,3.701,0,0,0,0,0.878,72.68,175.70349742041,0,11,AutoTakeoff,
1500,2025-04-22 04:57:09,0,0,0,,,175.70349742041,0.328084,0,0,0,14,2,7.544,175.70349742041,0,0,0,0,0,0,344.6, 3, 0,0,1,1024,1024,1024,1024,0,0,0,0,332.9,0,0,45,3.705,3.701,0,0,0,0,0.878,72.68,175.70349742041,0,11,AutoTakeoff,
1600,2025-04-22 04:57:09,0,0,0,,,175.70349742041,0.328084,0,0,0,14,2,7.544,175.70349742041,0,0,0,0,0,0,344.2, 2.5, 0,0,1,1024,1024,1024,1024,0,0,0,0,332.9,0,0,45,3.705,3.701,0,0,0,0,0.878,72.68,175.70349742041,0,11,AutoTakeoff,
1700,2025-04-22 04:57:09,0,0,0,,,175.70349742041,0.328084,0,0,0,14,2,7.544,175.70349742041,0,0,0,0,0,0,344, -1.3, 0.1,0,1,1024,1024,1024,1024,0,0,0,0,332.9,0,0,45,3.705,3.701,0,0,0,0,0.878,72.68,175.70349742041,0,11,AutoTakeoff,
1800,2025-04-22 04:57:09,0,0,0,,,175.70349742041,0.328084,0,0,0,14,2,7.544,175.70349742041,0,0,0,0,0,-0.223694,343.6, -2.6, -0.4,0,1,1024,1024,1024,1024,0,0,0,0,332.9,0,0,45,3.705,3.701,0,0,0,0,0.878,72.68,175.70349742041,0,11,AutoTakeoff,
1900,2025-04-22 04:57:09,0,0,0,,,175.70349742041,0.328084,0,0,0,14,2,7.544,175.70349742041,0,0,0,0,0,-0.447388,343.4, -2.7, -0.6,0,1,1024,1024,1024,1024,0,0,0,0,332.8,0,0,45,3.705,3.701,0,0,0,0,0.878,72.68,175.70349742041,0,11,AutoTakeoff,
2000,2025-04-22 04:57:10,0,0,0,,,175.70349742041,0.328084,0,0,0,14,2,7.544,175.70349742041,0,0,0,0,0,-0.671082,343.5, -0.3, -0.3,0,1,1024,1024,1024,1024,0,0,0,0,332.8,0,0,45,3.705,3.701,0,0,0,0,0.878,72.68,175.70349742041,0,11,AutoTakeoff,
2100,2025-04-22 04:57:10,0,0,0,,,175.70349742041,0.656168,0,0,0,14,2,7.365,175.70349742041,0,0,0,0,0,-0.894776,343.7, 0, 0.9,0,1,1024,1024,1024,1024,0,0,0,0,332.7,0,0,45,3.639,3.627,0,0,0,0,1.709,72.68,175.70349742041,0,11,AutoTakeoff,
2200,2025-04-22 04:57:10,0,0,0,,,175.70349742041,0.656168,0,0,0,14,2,7.365,175.70349742041,0,0,0,0,0,-1.11847,343.5, 0.9, 0.3,0,1,1024,1024,1024,1024,0,0,0,0,332.7,0,0,45,3.639,3.627,0,0,0,0,1.709,72.68,175.70349742041,0,11,AutoTakeoff,
2300,2025-04-22 04:57:10,0,0,0.328084,,,176.03158142041,0.984252,0,0,0,14,2,7.365,176.03158142041,0.328084,0,0,0,0,-1.342164,343.5, 0.7, 0.1,0,1,1024,1024,1024,1024,0,0,0,0,332.6,0,0,45,3.639,3.627,0,0,0,0,1.709,72.68,176.03158142041,0.328084,11,AutoTakeoff,
2400,2025-04-22 04:57:10,0,0,0.656168,,,176.35966542041,0.984252,0,0,0,15,2,7.365,176.35966542041,0.656168,0,0,0,0,-1.565858,343.5, 0.6, 0,0,1,1024,1024,1024,1024,0,0,0,0,332.6,0,0,45,3.639,3.627,0,0,0,0,1.709,72.68,176.35966542041,0.656168,11,AutoTakeoff,
2500,2025-04-22 04:57:10,0,0,0.656168,,,176.35966542041,1.312336,0,0,0,15,2,7.365,176.35966542041,0.656168,0,0,0,0,-1.789552,343.5, 0.5, 0,0,1,1024,1024,1024,1024,0,0,0,0,332.6,0,0,45,3.639,3.627,0,0,0,0,1.709,72.68,176.35966542041,0.656168,11,AutoTakeoff,
2600,2025-04-22 04:57:10,0,0,0.984252,,,176.68774942041,1.64042,0,0,0,14,2,7.365,176.68774942041,0.984252,0,0,0,0,-2.013246,343.5, 0.4, -0.1,0,1,1024,1024,1024,1024,0,0,0,0,332.5,0,0,45,3.639,3.627,0,0,0,0,1.709,72.68,176.68774942041,0.984252,11,AutoTakeoff,
2700,2025-04-22 04:57:10,0,0,1.312336,,,177.01583342041,1.968504,0,0,0,14,2,7.365,177.01583342041,1.312336,0,0,0,0,-2.013246,343.5, 0.4, -0.1,0,1,1024,1024,1024,1024,0,0,0,0,332.5,0,0,45,3.639,3.627,0,0,0,0,1.709,72.68,177.01583342041,1.312336,11,AutoTakeoff,
2800,2025-04-22 04:57:10,0,0,1.64042,,,177.34391742041,2.296588,0,0,0,13,2,7.365,177.34391742041,1.64042,0,0,0,0,-2.23694,343.5, 0.5, -0.1,0,1,1024,1024,1024,1024,0,0,0,0,332.5,0,0,45,3.639,3.627,0,0,0,0,1.709,72.68,177.34391742041,1.64042,11,AutoTakeoff,
2900,2025-04-22 04:57:10,0,0,1.968504,,,177.67200142041,2.624672,0,0,0,12,2,7.365,177.67200142041,1.968504,0,0,0,0,-2.23694,343.5, 0.6, -0.1,0,1,1024,1024,1024,1024,0,0,0,0,332.4,0,0,45,3.639,3.627,0,0,0,0,1.709,72.68,177.67200142041,1.968504,11,AutoTakeoff,
3000,2025-04-22 04:57:10,0,0,2.296588,,,178.00008542041,2.952756,0,0,0,12,2,7.365,178.00008542041,2.296588,0,0,0,0,-2.23694,343.5, 0.7, 0,0,1,1024,1024,1024,1024,0,0,0,0,332.4,0,0,45,3.639,3.627,0,0,0,0,1.709,72.68,178.00008542041,2.296588,6,P-GPS,
3100,2025-04-22 04:57:11,0,0,2.624672,,,178.32816942041,3.28084,0,0,0,12,2,7.016,178.32816942041,2.624672,0,0,0,0,-2.013246,344, 0.9, 0,0,1,1024,1024,1024,1024,0,0,0,0,332.4,0,0,45,3.472,3.462,0,0,0,0,4.004,72.68,178.32816942041,2.624672,6,P-GPS,
3200,2025-04-22 04:57:11,0,0,2.952756,,,178.65625342041,3.608924,0,0,0,14,2,7.016,178.65625342041,2.952756,0,0,0,0,-1.789552,344.9, 1.2, 0.1,0,1,1024,1024,1024,1024,0,0,0,0,332.4,0,0,45,3.472,3.462,0,0,0,0,4.004,72.68,178.65625342041,2.952756,6,P-GPS,
3300,2025-04-22 04:57:11,0,0,3.28084,,,178.98433742041,3.608924,0,0,0,14,2,7.016,178.98433742041,3.28084,0,0,0,0,-1.11847,346, 0.9, 0.2,0,1,1024,1024,1024,1024,0,0,0,0,332.4,0,0,45,3.472,3.462,0,0,0,0,4.004,72.68,178.98433742041,3.28084,6,P-GPS,
3400,2025-04-22 04:57:11,0,0,3.28084,,,178.98433742041,3.937008,0,0,0,13,2,7.016,178.98433742041,3.28084,0,0,0,0,-0.671082,347.1, 0.8, 0.4,0,1,1024,1024,1024,1024,0,0,0,0,332.4,0,0,45,3.472,3.462,0,0,0,0,4.004,72.68,178.98433742041,3.28084,6,P-GPS,
3500,2025-04-22 04:57:11,0,0,3.28084,,,178.98433742041,3.937008,0,0,0,13,2,7.016,178.98433742041,3.28084,0,0,0,0,-0.223694,348.2, 0.7, 0.4,0,1,1024,1024,1024,1024,0,0,0,0,332.4,0,0,45,3.472,3.462,0,0,0,0,4.004,72.68,178.98433742041,3.28084,6,P-GPS,
3600,2025-04-22 04:57:11,0,0,3.608924,,,179.31242142041,3.937008,0,0,0,13,2,7.016,179.31242142041,3.608924,0,0,0,0,0,349.4, 0.6, 0.4,0,1,1024,1024,1024,1024,0,0,0,0,332.4,0,0,45,3.472,3.462,0,0,0,0,4.004,72.68,179.31242142041,3.608924,6,P-GPS,
3700,2025-04-22 04:57:11,0,0,3.608924,,,179.31242142041,3.937008,0,0,0,13,2,7.016,179.31242142041,3.608924,0,0,0,0,0,350.5, 0.3, 0.2,0,1,1024,1024,1024,1024,0,0,0,0,332.4,0,0,45,3.472,3.462,0,0,0,0,4.004,72.68,179.31242142041,3.608924,6,P-GPS,
3800,2025-04-22 04:57:11,0,0,3.608924,,,179.31242142041,3.937008,0,0,0,14,2,7.016,179.31242142041,3.608924,0,0,0,0,0,351.7, 0.3, 0.1,0,1,1024,1024,1024,1024,0,0,0,0,332.4,0,0,45,3.472,3.462,0,0,0,0,4.004,72.68,179.31242142041,3.608924,6,P-GPS,
3900,2025-04-22 04:57:11,0,0,3.608924,,,179.31242142041,3.937008,0,0,0,14,2,7.016,179.31242142041,3.608924,0,0,0,0,0,352.7, 0.2, 0,0,1,1024,1024,1024,1024,0,0,0,0,332.4,0,0,45,3.472,3.462,0,0,0,0,4.004,72.68,179.31242142041,3.608924,6,P-GPS,
4000,2025-04-22 04:57:12,0,0,3.608924,,,179.31242142041,3.937008,0,0,0,14,2,7.016,179.31242142041,3.608924,0,0,0,0,0,353.7, 0.1, -0.1,0,1,1024,1024,1024,1024,0,0,0,0,332.4,0,0,45,3.472,3.462,0,0,0,0,4.004,72.68,179.31242142041,3.608924,6,P-GPS,
4100,2025-04-22 04:57:12,0,0,3.608924,,,179.31242142041,3.937008,0,0,0,13,2,6.961,179.31242142041,3.608924,0,0,0,0,0,354.7, 0, 0,0,1,1024,1024,1024,1024,0,0,0,0,332.4,0,0,45,3.535,3.524,0,0,0,0,5.201,72.86,179.31242142041,3.608924,6,P-GPS,
4200,2025-04-22 04:57:12,0,0,3.608924,,,179.31242142041,3.937008,0,0,0,13,2,6.961,179.31242142041,3.608924,0,0,0,0,0,355.5, 0, 0,0,1,1024,1024,1024,1024,0,0,0,0,332.4,0,0,45,3.535,3.524,0,0,0,0,5.201,72.86,179.31242142041,3.608924,6,P-GPS,
4300,2025-04-22 04:57:12,0,0,3.608924,,,179.31242142041,3.937008,0,0,0,13,2,6.961,179.31242142041,3.608924,0,0,0,0,0,356.4, 0, -0.2,0,1,1024,1024,1024,1024,0,0,0,0,332.4,0,0,45,3.535,3.524,0,0,0,0,5.201,72.86,179.31242142041,3.608924,6,P-GPS,
4400,2025-04-22 04:57:12,0,0,3.608924,,,179.31242142041,3.937008,0,0,0,13,2,6.961,179.31242142041,3.608924,0,0,0,0,0,357.2, 0, -0.4,0,1,1024,1024,1024,1024,0,0,0,0,332.4,0,0,45,3.535,3.524,0,0,0,0,5.201,72.86,179.31242142041,3.608924,6,P-GPS,
4500,2025-04-22 04:57:12,0,0,3.608924,,,179.31242142041,3.937008,0,0,0,14,2,6.961,179.31242142041,3.608924,0,0,0,0,0,357.9, 0.1, -0.7,0,1,1024,1024,1024,1024,0,0,0,0,332.4,0,0,45,3.535,3.524,0,0,0,0,5.201,72.86,179.31242142041,3.608924,6,P-GPS,
4600,2025-04-22 04:57:12,0,0,3.608924,,,179.31242142041,3.937008,0,0,0,14,2,6.961,179.31242142041,3.608924,0,0,0,0,0,358.7, 0, -0.6,0,1,1024,1024,1024,1024,0,0,0,0,332.4,0,0,45,3.535,3.524,0,0,0,0,5.201,72.86,179.31242142041,3.608924,6,P-GPS,
4700,2025-04-22 04:57:12,0,0,3.608924,,,179.31242142041,3.937008,0,0,0,13,2,6.961,179.31242142041,3.608924,0,0,0,0,0,359.3, 0, -0.6,0,1,1024,1024,1024,1024,0,0,0,0,332.4,0,0,45,3.535,3.524,0,0,0,0,5.201,72.86,179.31242142041,3.608924,6,P-GPS,
4800,2025-04-22 04:57:12,0,0,3.608924,,,179.31242142041,3.937008,0,0,0,13,2,6.961,179.31242142041,3.608924,0,0,0,0,0,359.9, 0, -0.5,0,1,1024,1024,1024,1024,0,0,0,0,332.4,0,0,45,3.535,3.524,0,0,0,0,5.201,72.86,179.31242142041,3.608924,6,P-GPS,
4900,2025-04-22 04:57:12,0,0,3.608924,,,179.31242142041,3.937008,0,0,0,13,2,6.961,179.31242142041,3.608924,0,0,0,0,0,0.3, 0, -0.5,0,1,1024,1024,1024,1024,0,0,0,0,332.4,0,0,45,3.535,3.524,0,0,0,0,5.201,72.86,179.31242142041,3.608924,6,P-GPS,
5000,2025-04-22 04:57:12,0,0,3.608924,,,179.31242142041,3.937008,0,0,0,13,2,6.961,179.31242142041,3.608924,0,0,0,0,0,0.8, 0, -0.5,0,1,1024,1024,1024,1024,0,0,0,0,332.4,0,0,45,3.535,3.524,0,0,0,0,5.201,72.86,179.31242142041,3.608924,6,P-GPS,
5100,2025-04-22 04:57:13,0,0,3.608924,,,179.31242142041,3.937008,0,0,0,13,2,6.961,179.31242142041,3.608924,0,0,0,0,0,1.3, -0.1, -0.3,0,1,1061,1024,1024,1024,6,0,0,0,332.4,0,0,45,3.535,3.524,0,0,0,0,5.201,72.86,179.31242142041,3.608924,6,P-GPS,
5200,2025-04-22 04:57:13,0,0,3.608924,,,179.31242142041,3.937008,0,0,0,13,2,6.979,179.31242142041,3.608924,0,0,0,0,0,1.8, -0.2, -0.5,0,1,1113,1024,1024,1024,13,0,0,0,332.4,0,0,45,3.487,3.479,0,0,0,0,4.505,72.68,179.31242142041,3.608924,6,P-GPS,
5300,2025-04-22 04:57:13,0,0,3.608924,,,179.31242142041,3.937008,0,0,0,13,2,6.979,179.31242142041,3.608924,0,0,0,0,0,2.2, -0.4, -0.6,0,1,1126,1024,1024,1024,15,0,0,0,332.4,0,0,45,3.487,3.479,0,0,0,0,4.505,72.68,179.31242142041,3.608924,6,P-GPS,
5400,2025-04-22 04:57:13,0,0,3.608924,,,179.31242142041,3.937008,0,0,0,13,2,6.979,179.31242142041,3.608924,0,0,0,0,0,2.6, -0.9, -0.6,0,1,1129,1024,1024,1024,16,0,0,0,332.4,0,0,45,3.487,3.479,0,0,0,0,4.505,72.68,179.31242142041,3.608924,6,P-GPS,
5500,2025-04-22 04:57:13,0,0,3.608924,,,179.31242142041,3.937008,0,0,0,13,2,6.979,179.31242142041,3.608924,0,0,0,0,0,3, -1, -0.6,0,1,1129,1024,1024,1024,16,0,0,0,332.4,0,0,45,3.487,3.479,0,0,0,0,4.505,72.68,179.31242142041,3.608924,6,P-GPS,
5600,2025-04-22 04:57:13,0,0,3.608924,,,179.31242142041,3.937008,0,0,0,13,2,6.979,179.31242142041,3.608924,0,0,0,0,0,3.3, -1.1, -0.5,0,1,1130,1024,1024,1024,16,0,0,0,332.4,0,0,45,3.487,3.479,0,0,0,0,4.505,72.68,179.31242142041,3.608924,6,P-GPS,
5700,2025-04-22 04:57:13,0,0,3.608924,,,179.31242142041,3.937008,0,0,0,13,2,6.979,179.31242142041,3.608924,0,0,0,0,0,3.7, -1, -0.5,0,1,1130,1024,1024,1024,16,0,0,0,332.4,0,0,45,3.487,3.479,0,0,0,0,4.505,72.68,179.31242142041,3.608924,6,P-GPS,
5800,2025-04-22 04:57:13,0,0,3.608924,,,179.31242142041,3.937008,0,0,0,13,2,6.979,179.31242142041,3.608924,0,0,0,0,0,3.9, -0.9, -0.6,0,1,1130,1024,1024,1024,16,0,0,0,332.4,0,0,45,3.487,3.479,0,0,0,0,4.505,72.68,179.31242142041,3.608924,6,P-GPS,
5900,2025-04-22 04:57:13,0,0,3.608924,,,179.31242142041,3.937008,0.223694,0,0,13,2,6.979,179.31242142041,3.608924,0.223694,0,0.223694,0,0,4.2, -0.8, -0.6,0,1,1130,1024,1024,1024,16,0,0,0,332.4,0,0,45,3.487,3.479,0,0,0,0,4.505,72.68,179.31242142041,3.608924,6,P-GPS,
6000,2025-04-22 04:57:13,0,0,3.608924,,,179.31242142041,3.937008,0.223694,0,0,13,2,6.979,179.31242142041,3.608924,0.223694,0,0.223694,0,0,4.5, -0.9, -0.7,0,1,1130,1024,1024,1024,16,0,0,0,332.4,0,0,45,3.487,3.479,0,0,0,0,4.505,72.68,179.31242142041,3.608924,6,P-GPS,
6100,2025-04-22 04:57:14,0,0,3.608924,,,179.31242142041,3.937008,0.223694,0,0,13,2,6.967,179.31242142041,3.608924,0.223694,0,0.223694,0,0,4.7, -0.9, -0.6,0,1,1131,1024,1024,1024,16,0,0,0,332.4,0,0,45,3.482,3.475,0,0,0,0,4.867,72.68,179.31242142041,3.608924,6,P-GPS,
6200,2025-04-22 04:57:14,0,0,3.608924,,,179.31242142041,3.937008,0.223694,0,0,13,2,6.967,179.31242142041,3.608924,0.223694,0,0.223694,0,0,5, -0.9, -0.1,0,1,1130,1024,1024,1024,16,0,0,0,332.4,0,0,45,3.482,3.475,0,0,0,0,4.867,72.68,179.31242142041,3.608924,6,P-GPS,
6300,2025-04-22 04:57:14,0,0,3.608924,,,179.31242142041,3.937008,0.223694,0,0,13,2,6.967,179.31242142041,3.608924,0.223694,0,0.223694,0,0,5.3, -0.8, 0.1,0,1,1127,1024,1024,1024,16,0,0,0,332.4,0,0,45,3.482,3.475,0,0,0,0,4.867,72.68,179.31242142041,3.608924,6,P-GPS,
6400,2025-04-22 04:57:14,0,0,3.608924,,,179.31242142041,3.937008,0.223694,0,0,13,2,6.967,179.31242142041,3.608924,0.223694,0,0.223694,0,0,5.4, -0.8, 0.1,0,1,1127,1024,1024,1024,16,0,0,0,332.4,0,0,45,3.482,3.475,0,0,0,0,4.867,72.68,179.31242142041,3.608924,6,P-GPS,
6500,2025-04-22 04:57:14,0,0,3.608924,,,179.31242142041,3.937008,0.223694,0,0,11,2,6.967,179.31242142041,3.608924,0.223694,0,0.223694,0,0,5.6, -0.8, 0.2,0,1,1127,1024,1024,1024,16,0,0,0,332.4,0,0,45,3.482,3.475,0,0,0,0,4.867,72.68,179.31242142041,3.608924,6,P-GPS,
6600,2025-04-22 04:57:14,0,0,3.608924,,,179.31242142041,3.937008,0.223694,0,0,11,2,6.967,179.31242142041,3.608924,0.223694,0,0.223694,0,0,5.8, -0.8, 0.2,0,1,1129,1024,1024,1024,16,0,0,0,332.4,0,0,45,3.482,3.475,0,0,0,0,4.867,72.68,179.31242142041,3.608924,6,P-GPS,
6700,2025-04-22 04:57:14,0,0,3.608924,,,179.31242142041,3.937008,0.223694,0,0,11,2,6.967,179.31242142041,3.608924,0.223694,0,0.223694,0,0,6, -0.8, 0,0,1,1129,1024,1024,1024,16,0,0,0,332.4,0,0,45,3.482,3.475,0,0,0,0,4.867,72.68,179.31242142041,3.608924,6,P-GPS,
6800,2025-04-22 04:57:14,0,0,3.608924,,,179.31242142041,3.937008,0.447388,0,0,11,2,6.967,179.31242142041,3.608924,0.447388,0,0.447388,0,0,6.1, -0.9, 0.1,0,1,1132,1024,1024,1024,16,0,0,0,332.4,0,0,45,3.482,3.475,0,0,0,0,4.867,72.68,179.31242142041,3.608924,6,P-GPS,
6900,2025-04-22 04:57:14,0,0,3.608924,,,179.31242142041,3.937008,0.447388,0,0,11,2,6.967,179.31242142041,3.608924,0.447388,0,0.447388,0,0,6.3, -1.1, 0.2,0,1,1135,1024,1024,1024,17,0,0,0,332.4,0,0,45,3.482,3.475,0,0,0,0,4.867,72.68,179.31242142041,3.608924,6,P-GPS,
7000,2025-04-22 04:57:15,0,0,3.608924,,,179.31242142041,3.937008,0.447388,0,0,11,2,6.967,179.31242142041,3.608924,0.447388,0,0.447388,0,0,6.4, -1, 0.3,0,1,1140,1024,1024,1024,18,0,0,0,332.4,0,0,45,3.482,3.475,0,0,0,0,4.867,72.68,179.31242142041,3.608924,6,P-GPS,
7100,2025-04-22 04:57:15,0,0,3.608924,,,179.31242142041,3.937008,0.447388,0,0,11,2,6.947,179.31242142041,3.608924,0.447388,0,0.447388,0,0,6.6, -1, 0.5,0,1,1169,1024,1024,1024,22,0,0,0,332.4,0,0,45,3.472,3.462,0,0,0,0,4.905,72.86,179.31242142041,3.608924,6,P-GPS,
7200,2025-04-22 04:57:15,0,0,3.608924,,,179.31242142041,3.937008,0.447388,0,0,11,2,6.947,179.31242142041,3.608924,0.447388,0,0.447388,0,0,6.7, -1.1, 0.6,0,1,1167,1024,1024,1024,22,0,0,0,332.4,0,0,45,3.472,3.462,0,0,0,0,4.905,72.86,179.31242142041,3.608924,6,P-GPS,
7300,2025-04-22 04:57:15,0,0,3.608924,,,179.31242142041,3.937008,0.447388,0,0,11,2,6.947,179.31242142041,3.608924,0.447388,0,0.447388,0,0,6.9, -1.1, 0.7,0,1,1167,1024,1024,1024,22,0,0,0,332.4,0,0,45,3.472,3.462,0,0,0,0,4.905,72.86,179.31242142041,3.608924,6,P-GPS,
7400,2025-04-22 04:57:15,0,0,3.608924,,,179.31242142041,3.937008,0.671082,0,0,14,2,6.947,179.31242142041,3.608924,0.671082,0,0.671082,0,0,7, -1.4, 0.6,0,1,1171,1024,1024,1024,22,0,0,0,332.4,0,0,45,3.472,3.462,0,0,0,0,4.905,72.86,179.31242142041,3.608924,6,P-GPS,
7500,2025-04-22 04:57:15,0,0,3.608924,,,179.31242142041,3.937008,0.671082,0,0,13,2,6.947,179.31242142041,3.608924,0.671082,0,0.671082,0,0,7.1, -1.4, 0.6,0,1,1165,1024,1024,1024,21,0,0,0,332.4,0,0,45,3.472,3.462,0,0,0,0,4.905,72.86,179.31242142041,3.608924,6,P-GPS,
7600,2025-04-22 04:57:15,0,0,3.608924,,,179.31242142041,3.937008,0.671082,0,0,13,2,6.947,179.31242142041,3.608924,0.671082,0,0.671082,0,0,7.3, -1.3, 0.5,0,1,1164,1024,1024,1024,21,0,0,0,332.4,0,0,45,3.472,3.462,0,0,0,0,4.905,72.86,179.31242142041,3.608924,6,P-GPS,
7700,2025-04-22 04:57:15,0,0,3.608924,,,179.31242142041,3.937008,0.671082,0,0,13,2,6.947,179.31242142041,3.608924,0.671082,0,0.671082,0,0,7.5, -1.2, 0.9,0,1,1164,1024,1024,1024,21,0,0,0,332.4,0,0,45,3.472,3.462,0,0,0,0,4.905,72.86,179.31242142041,3.608924,6,P-GPS,
7800,2025-04-22 04:57:15,0,0,3.608924,,,179.31242142041,3.937008,0.894776,0,0,15,2,6.947,179.31242142041,3.608924,0.894776,0,0.894776,0,0,7.6, -1.1, 1.2,0,1,1164,1024,1024,1024,21,0,0,0,332.4,0,0,45,3.472,3.462,0,0,0,0,4.905,72.86,179.31242142041,3.608924,6,P-GPS,
7900,2025-04-22 04:57:15,0,0,3.608924,,,179.31242142041,3.937008,0.894776,0,0,15,2,6.947,179.31242142041,3.608924,0.894776,0,0.894776,0,0,7.6, -1, 1.3,0,1,1164,1024,1024,1024,21,0,0,0,332.4,0,0,45,3.472,3.462,0,0,0,0,4.905,72.86,179.31242142041,3.608924,6,P-GPS,
8000,2025-04-22 04:57:15,0,0,3.608924,,,179.31242142041,3.937008,0.894776,0,0,16,2,6.947,179.31242142041,3.608924,0.894776,0,0.894776,0,0,7.7, -1, 1.2,0,1,1164,1024,1024,1024,21,0,0,0,332.4,0,0,45,3.472,3.462,0,0,0,0,4.905,72.86,179.31242142041,3.608924,6,P-GPS,
8100,2025-04-22 04:57:16,0,0,3.608924,,,179.31242142041,3.937008,0.894776,0,0,16,2,6.928,179.31242142041,3.608924,0.894776,0,0.894776,0,0,7.8, -1, 0.9,0,1,1164,1024,1024,1024,21,0,0,0,332.4,0,0,45,3.471,3.461,0,0,0,0,4.965,72.86,179.31242142041,3.608924,6,P-GPS,
8200,2025-04-22 04:57:16,0,0,3.608924,,,179.31242142041,3.937008,0.894776,0,0,15,2,6.928,179.31242142041,3.608924,0.894776,0,0.894776,0,0,7.9, -0.8, 0.7,0,1,1164,1024,1024,1024,21,0,0,0,332.4,0,0,45,3.471,3.461,0,0,0,0,4.965,72.86,179.31242142041,3.608924,6,P-GPS,
8300,2025-04-22 04:57:16,0,0,3.608924,,,179.31242142041,3.937008,0.894776,0,0,15,2,6.928,179.31242142041,3.608924,0.894776,0,0.894776,0,0,8, -0.9, 0.8,0,1,1164,1024,1024,1024,21,0,0,0,332.4,0,0,45,3.471,3.461,0,0,0,0,4.965,72.86,179.31242142041,3.608924,6,P-GPS,
8400,2025-04-22 04:57:16,0,0,3.608924,,,179.31242142041,3.937008,0.894776,0,0,13,2,6.928,179.31242142041,3.608924,0.894776,0,0.894776,0,0,8.2, -1.1, 0.6,0,1,1166,1024,1024,1024,22,0,0,0,332.4,0,0,45,3.471,3.461,0,0,0,0,4.965,72.86,179.31242142041,3.608924,6,P-GPS,
8500,2025-04-22 04:57:16,0,0,3.608924,,,179.31242142041,3.937008,1.11847,0,0,13,2,6.928,179.31242142041,3.608924,1.11847,0,1.11847,0,0,8.3, -1, 0.6,0,1,1169,1024,1024,1024,22,0,0,0,332.4,0,0,45,3.471,3.461,0,0,0,0,4.965,72.86,179.31242142041,3.608924,6,P-GPS,
8600,2025-04-22 04:57:16,0,0,3.608924,,,179.31242142041,3.937008,1.11847,0,0,14,2,6.928,179.31242142041,3.608924,1.11847,0,1.11847,0,0,8.3, -1.1, 0.8,0,1,1167,1024,1024,1024,22,0,0,0,332.4,0,0,45,3.471,3.461,0,0,0,0,4.965,72.86,179.31242142041,3.608924,6,P-GPS,
8700,2025-04-22 04:57:16,0,0,3.608924,,,179.31242142041,3.937008,1.11847,0,0,14,2,6.928,179.31242142041,3.608924,1.11847,0,1.11847,0,0,8.3, -1, 0.8,0,1,1166,1024,1024,1024,22,0,0,0,332.4,0,0,45,3.471,3.461,0,0,0,0,4.965,72.86,179.31242142041,3.608924,6,P-GPS,
8800,2025-04-22 04:57:16,0,0,3.608924,,,179.31242142041,3.937008,1.11847,0,0,15,2,6.928,179.31242142041,3.608924,1.11847,0,1.11847,0,0,8.4, -1.1, 0.9,0,1,1166,1024,1024,1024,22,0,0,0,332.4,0,0,45,3.471,3.461,0,0,0,0,4.965,72.86,179.31242142041,3.608924,6,P-GPS,
8900,2025-04-22 04:57:16,0,0,3.608924,,,179.31242142041,3.937008,1.11847,0,0,15,2,6.928,179.31242142041,3.608924,1.11847,0,1.11847,0,0,8.4, -1.2, 0.6,0,1,1166,1024,1024,1024,22,0,0,0,332.4,0,0,45,3.471,3.461,0,0,0,0,4.965,72.86,179.31242142041,3.608924,6,P-GPS,
9000,2025-04-22 04:57:17,0,0,3.608924,,,179.31242142041,3.937008,1.11847,0,0,13,2,6.93,179.31242142041,3.608924,1.11847,0,1.11847,0,0,8.4, -1.1, 0.5,0,1,1165,1024,1024,1024,21,0,0,0,332.4,0,0,45,3.47,3.459,0,0,0,0,4.855,72.86,179.31242142041,3.608924,6,P-GPS,
9100,2025-04-22 04:57:17,0,0,3.608924,,,179.31242142041,3.937008,1.11847,0,0,13,2,6.93,179.31242142041,3.608924,1.11847,0,1.11847,0,0,8.4, -1, 0.7,0,1,1165,1024,1024,1024,21,0,0,0,332.4,0,0,45,3.47,3.459,0,0,0,0,4.855,72.86,179.31242142041,3.608924,6,P-GPS,
9200,2025-04-22 04:57:17,0,0,3.608924,,,179.31242142041,3.937008,1.342164,0,0,17,2,6.93,179.31242142041,3.608924,1.342164,0,1.342164,0,0,8.4, -0.7, 0.9,0,1,1165,1024,1024,1024,21,0,0,0,332.4,0,0,45,3.47,3.459,0,0,0,0,4.855,72.86,179.31242142041,3.608924,6,P-GPS,
9300,2025-04-22 04:57:17,0,0,3.608924,,,179.31242142041,3.937008,1.342164,0,0,17,2,6.93,179.31242142041,3.608924,1.342164,0,1.342164,0,0,8.4, -0.6, 0.9,0,1,1165,1024,1024,1024,21,0,0,0,332.4,0,0,45,3.47,3.459,0,0,0,0,4.855,72.86,179.31242142041,3.608924,6,P-GPS,
9400,2025-04-22 04:57:17,0,0,3.608924,,,179.31242142041,3.937008,1.342164,0,0,17,2,6.93,179.31242142041,3.608924,1.342164,0,1.342164,0,0,8.4, -0.7, 0.9,0,1,1166,1024,1024,1024,22,0,0,0,332.4,0,0,45,3.47,3.459,0,0,0,0,4.855,72.86,179.31242142041,3.608924,6,P-GPS,
9500,2025-04-22 04:57:17,0,0,3.608924,,,179.31242142041,3.937008,1.342164,0,0,17,2,6.93,179.31242142041,3.608924,1.342164,0,1.342164,0,0,8.4, -0.6, 0.7,0,1,1165,1024,1024,1024,21,0,0,0,332.4,0,0,45,3.47,3.459,0,0,0,0,4.855,72.86,179.31242142041,3.608924,6,P-GPS,
9600,2025-04-22 04:57:17,0,0,3.608924,,,179.31242142041,3.937008,1.342164,0,0,15,2,6.93,179.31242142041,3.608924,1.342164,0,1.342164,0,0,8.5, -0.7, 0.5,0,1,1024,1024,1024,1024,0,0,0,0,332.4,0,0,45,3.47,3.459,0,0,0,0,4.855,72.86,179.31242142041,3.608924,6,P-GPS,
9700,2025-04-22 04:57:17,0,0,3.608924,,,179.31242142041,3.937008,1.342164,0,0,15,2,6.93,179.31242142041,3.608924,1.342164,0,1.342164,0,0,8.5, -0.5, 0.6,0,1,1024,1024,1024,1024,0,0,0,0,332.4,0,0,45,3.47,3.459,0,0,0,0,4.855,72.86,179.31242142041,3.608924,6,P-GPS,
9800,2025-04-22 04:57:17,0,0,3.608924,,,179.31242142041,3.937008,1.342164,0,0,16,2,6.93,179.31242142041,3.608924,1.342164,0,1.342164,0,0,8.5, 3.5, 0.5,0,1,1024,1024,1024,1024,0,0,0,0,332.4,0,0,45,3.47,3.459,0,0,0,0,4.855,72.86,179.31242142041,3.608924,6,P-GPS,
9900,2025-04-22 04:57:17,0,0,3.608924,,,179.31242142041,3.937008,1.11847,0,0,16,2,6.93,179.31242142041,3.608924,1.342164,0,1.11847,0,0,8.6, 5.4, 0.5,0,1,1024,1024,1024,1024,0,0,0,0,332.4,0,0,45,3.47,3.459,0,0,0,0,4.855,72.86,179.31242142041,3.608924,6,P-GPS,
10000,2025-04-22 04:57:17,0,0,3.608924,,,179.31242142041,3.937008,0.894776,0,0,15,2,6.923,179.31242142041,3.608924,1.342164,0,0.894776,0,0,8.6, 5.2, 0.6,0,1,1024,1024,1024,1024,0,0,0,0,332.4,0,0,45,3.465,3.452,0,0,0,0,4.819,73.04,179.31242142041,3.608924,6,P-GPS,
10100,2025-04-22 04:57:18,0,0,3.608924,,,179.31242142041,3.937008,0.671082,0,0,15,2,6.923,179.31242142041,3.608924,1.342164,0,0.671082,0,0,8.6, 4.4, 0.8,0,1,1024,1117,1024,1024,0,14,0,0,332.4,0,0,45,3.465,3.452,0,0,0,0,4.819,73.04,179.31242142041,3.608924,6,P-GPS,
10200,2025-04-22 04:57:18,0,0,3.608924,,,179.31242142041,3.937008,0.447388,0,0,15,2,6.923,179.31242142041,3.608924,1.342164,0,0.447388,0,0,8.6, 3.7, 0.9,0,1,1024,1117,1024,1024,0,14,0,0,332.4,0,0,45,3.465,3.452,0,0,0,0,4.819,73.04,179.31242142041,3.608924,6,P-GPS,
10300,2025-04-22 04:57:18,0,0,3.608924,,,179.31242142041,3.937008,0.447388,0,0,15,2,6.923,179.31242142041,3.608924,1.342164,0,0.447388,0,0,8.5, 2.9, 1.1,0,1,1024,1263,1024,1024,0,36,0,0,332.4,0,0,45,3.465,3.452,0,0,0,0,4.819,73.04,179.31242142041,3.608924,6,P-GPS,
10400,2025-04-22 04:57:18,0,0,3.608924,,,179.31242142041,3.937008,0.447388,0,0,14,2,6.923,179.31242142041,3.608924,1.342164,0,0.447388,0,0,8.6, 2, 3.3,0,1,1024,1256,1024,1024,0,35,0,0,332.4,0,0,45,3.465,3.452,0,0,0,0,4.819,73.04,179.31242142041,3.608924,6,P-GPS,
10500,2025-04-22 04:57:18,0,0,3.608924,,,179.31242142041,3.937008,0.223694,0,0,13,2,6.923,179.31242142041,3.608924,1.342164,0,0.223694,0,0,8.6, 1.5, 4.3,0,1,1024,1242,1024,1024,0,33,0,0,332.4,0,0,45,3.465,3.452,0,0,0,0,4.819,73.04,179.31242142041,3.608924,6,P-GPS,
10600,2025-04-22 04:57:18,0,0,3.608924,,,179.31242142041,3.937008,0.3131716,0,0,13,2,6.923,179.31242142041,3.608924,1.342164,0,0.223694,0.223694,0,8.6, 1.2, 4,0,1,1024,1241,1024,1024,0,33,0,0,332.4,0,0,45,3.465,3.452,0,0,0,0,4.819,73.04,179.31242142041,3.608924,6,P-GPS,
10700,2025-04-22 04:57:18,0,0,3.608924,,,179.31242142041,3.937008,0.223694,0,0,13,2,6.923,179.31242142041,3.608924,1.342164,0,0,0.223694,0,8.7, 0.9, 3.7,0,1,1024,1241,1024,1024,0,33,0,0,332.4,0,0,45,3.465,3.452,0,0,0,0,4.819,73.04,179.31242142041,3.608924,6,P-GPS,
10800,2025-04-22 04:57:18,0,0,3.608924,,,179.31242142041,3.937008,0.447388,0,0,13,2,6.923,179.31242142041,3.608924,1.342164,0,0,0.447388,0,8.7, 0.7, 3.6,0,1,1024,1232,1024,1024,0,32,0,0,332.4,0,0,45,3.465,3.452,0,0,0,0,4.819,73.04,179.31242142041,3.608924,6,P-GPS,
10900,2025-04-22 04:57:18,0,0,3.608924,,,179.31242142041,3.937008,0.447388,0,0,13,2,6.923,179.31242142041,3.608924,1.342164,0,0,0.447388,0,8.7, 0.5, 3.6,0,1,1024,1224,1024,1024,0,30,0,0,332.4,0,0,45,3.465,3.452,0,0,0,0,4.819,73.04,179.31242142041,3.608924,6,P-GPS,
11000,2025-04-22 04:57:19,0,0,3.608924,,,179.31242142041,3.937008,0.447388,0,0,13,2,6.907,179.31242142041,3.608924,1.342164,0,0,0.447388,0,8.7, 0.1, 3.7,0,1,1024,1224,1024,1024,0,30,0,0,332.4,0,0,45,3.458,3.446,0,0,0,0,4.907,73.22,179.31242142041,3.608924,6,P-GPS,
11100,2025-04-22 04:57:19,0,0,3.608924,,,179.31242142041,3.937008,0.671082,0,0,13,2,6.907,179.31242142041,3.608924,1.342164,0,0,0.671082,0,8.7, 0.1, 3.5,0,1,1024,1160,1024,1024,0,21,0,0,332.4,0,0,45,3.458,3.446,0,0,0,0,4.907,73.22,179.31242142041,3.608924,6,P-GPS,
11200,2025-04-22 04:57:19,0,0,3.608924,,,179.31242142041,3.937008,0.671082,0,0,14,2,6.907,179.31242142041,3.608924,1.342164,0,0,0.671082,0,8.7, 0.3, 2.8,0,1,1024,1158,1024,1024,0,20,0,0,332.4,0,0,45,3.458,3.446,0,0,0,0,4.907,73.22,179.31242142041,3.608924,6,P-GPS,
11300,2025-04-22 04:57:19,0,0,3.608924,,,179.31242142041,3.937008,0.671082,0,0,14,2,6.907,179.31242142041,3.608924,1.342164,0,0,0.671082,0,8.8, 0.4, 1.8,0,1,1024,1158,1024,1024,0,20,0,0,332.4,0,0,45,3.458,3.446,0,0,0,0,4.907,73.22,179.31242142041,3.608924,6,P-GPS,
11400,2025-04-22 04:57:19,0,0,3.28084,,,178.98433742041,3.937008,0.894776,0,0,14,2,6.907,179.31242142041,3.608924,1.342164,0,0,0.894776,0,8.8, 0.3, 1.7,0,1,1024,1157,1024,1024,0,20,0,0,332.4,0,0,45,3.458,3.446,0,0,0,0,4.907,73.22,178.98433742041,3.28084,6,P-GPS,
11500,2025-04-22 04:57:19,0,0,3.28084,,,178.98433742041,3.937008,0.894776,0,0,14,2,6.907,179.31242142041,3.608924,1.342164,0,0,0.894776,0,8.7, 0.2, 1.7,0,1,1024,1143,1024,1024,0,18,0,0,332.4,0,0,45,3.458,3.446,0,0,0,0,4.907,73.22,178.98433742041,3.28084,6,P-GPS,
11600,2025-04-22 04:57:19,0,0,3.28084,,,178.98433742041,3.937008,0.894776,0,0,14,2,6.907,179.31242142041,3.608924,1.342164,0,0,0.894776,0,8.8, 0.2, 1.6,0,1,1024,1142,1024,1024,0,18,0,0,332.4,0,0,45,3.458,3.446,0,0,0,0,4.907,73.22,178.98433742041,3.28084,6,P-GPS,
11700,2025-04-22 04:57:19,0,0,3.28084,,,178.98433742041,3.937008,0.894776,0,0,14,2,6.907,179.31242142041,3.608924,1.342164,0,0,0.894776,0,8.9, 0.3, 1.4,0,1,1024,1116,1024,1024,0,14,0,0,332.4,0,0,45,3.458,3.446,0,0,0,0,4.907,73.22,178.98433742041,3.28084,6,P-GPS,
11800,2025-04-22 04:57:19,0,0,3.28084,,,178.98433742041,3.937008,0.894776,0,0,14,2,6.907,179.31242142041,3.608924,1.342164,0,0,0.894776,0,8.8, 0.4, 1.4,0,1,1024,1024,1024,1024,0,0,0,0,332.4,0,0,45,3.458,3.446,0,0,0,0,4.907,73.22,178.98433742041,3.28084,6,P-GPS,
11900,2025-04-22 04:57:19,0,0,3.28084,,,178.98433742041,3.937008,0.894776,0,0,13,2,6.907,179.31242142041,3.608924,1.342164,0,0,0.894776,0,8.8, 0.2, 1,0,1,1024,1024,1024,1024,0,0,0,0,332.4,0,0,45,3.458,3.446,0,0,0,0,4.907,73.22,178.98433742041,3.28084,6,P-GPS,
12000,2025-04-22 04:57:19,0,0,3.28084,,,178.98433742041,3.937008,0.894776,0,0,13,2,6.892,179.31242142041,3.608924,1.342164,0,0,0.894776,0,8.6, 0.5, -2.4,0,1,1024,1024,1024,1024,0,0,0,0,332.4,0,0,45,3.454,3.441,0,0,0,0,4.973,73.22,178.98433742041,3.28084,6,P-GPS,
12100,2025-04-22 04:57:20,0,0,3.28084,,,178.98433742041,3.937008,0.671082,0,0,13,2,6.892,179.31242142041,3.608924,1.342164,0,0,0.671082,0,8.6, 0.7, -3.5,0,1,1024,1024,1024,1024,0,0,0,0,332.4,0,0,45,3.454,3.441,0,0,0,0,4.973,73.22,178.98433742041,3.28084,6,P-GPS,
12200,2025-04-22 04:57:20,0,0,3.28084,,,178.98433742041,3.937008,0.447388,0,0,13,2,6.892,179.31242142041,3.608924,1.342164,0,0,0.447388,0,8.7, 0.4, -3.3,0,1,1024,1024,1024,1024,0,0,0,0,332.4,0,0,45,3.454,3.441,0,0,0,0,4.973,73.22,178.98433742041,3.28084,6,P-GPS,
12300,2025-04-22 04:57:20,0,0,3.28084,,,178.98433742041,3.937008,0.447388,0,0,12,2,6.892,179.31242142041,3.608924,1.342164,0,0,0.447388,0,8.7, 0.8, -2.9,0,1,1024,1024,1024,1024,0,0,0,0,332.4,0,0,45,3.454,3.441,0,0,0,0,4.973,73.22,178.98433742041,3.28084,6,P-GPS,
12400,2025-04-22 04:57:20,0,0,3.28084,,,178.98433742041,3.937008,0.223694,0,0,12,2,6.892,179.31242142041,3.608924,1.342164,0,0,0.223694,0,8.7, 0.7, -2.2,0,1,1024,1024,1024,1024,0,0,0,0,332.4,0,0,45,3.454,3.441,0,0,0,0,4.973,73.22,178.98433742041,3.28084,6,P-GPS,
12500,2025-04-22 04:57:20,0,0,3.28084,,,178.98433742041,3.937008,0.223694,0,0,12,2,6.892,179.31242142041,3.608924,1.342164,0,0,0.223694,0,8.7, 0.3, -1.7,0,1,1024,1024,1024,1024,0,0,0,0,332.4,0,0,45,3.454,3.441,0,0,0,0,4.973,73.22,178.98433742041,3.28084,6,P-GPS,
12600,2025-04-22 04:57:20,0,0,3.28084,,,178.98433742041,3.937008,0,0,0,16,2,6.892,179.31242142041,3.608924,1.342164,0,0,0,0,8.8, 0.2, -1.1,0,1,816,1024,1024,1024,-32,0,0,0,332.4,0,0,45,3.454,3.441,0,0,0,0,4.973,73.22,178.98433742041,3.28084,6,P-GPS,
12700,2025-04-22 04:57:20,0,0,3.28084,,,178.98433742041,3.937008,0,0,0,16,2,6.892,179.31242142041,3.608924,1.342164,0,0,0,0,8.7, 0.4, -0.8,0,1,702,1024,1024,1024,-49,0,0,0,332.4,0,0,45,3.454,3.441,0,0,0,0,4.973,73.22,178.98433742041,3.28084,6,P-GPS,
12800,2025-04-22 04:57:20,0,0,3.28084,,,178.98433742041,3.937008,0,0,0,15,2,6.892,179.31242142041,3.608924,1.342164,0,0,0,0,8.8, 1.8, -0.2,0,1,702,1024,1024,1024,-49,0,0,0,332.4,0,0,45,3.454,3.441,0,0,0,0,4.973,73.22,178.98433742041,3.28084,6,P-GPS,
12900,2025-04-22 04:57:20,0,0,3.28084,,,178.98433742041,3.937008,0,0,0,15,2,6.892,179.31242142041,3.608924,1.342164,0,0,0,0,8.7, 5.3, 0,0,1,713,1024,1024,1024,-47,0,0,0,332.4,0,0,45,3.454,3.441,0,0,0,0,4.973,73.22,178.98433742041,3.28084,6,P-GPS,
13000,2025-04-22 04:57:20,0,0,3.28084,,,178.98433742041,3.937008,0.223694,0,0,15,2,6.89,179.31242142041,3.608924,1.342164,0,-0.223694,0,0,8.7, 6, 0,0,1,815,1024,1024,1024,-32,0,0,0,332.4,0,0,45,3.451,3.437,0,0,0,0,4.943,73.22,178.98433742041,3.28084,6,P-GPS,
13100,2025-04-22 04:57:21,0,0,3.28084,,,178.98433742041,3.937008,0.447388,0,0,15,2,6.89,179.31242142041,3.608924,1.342164,0,-0.447388,0,0,8.8, 5.3, 0.2,0,1,952,1024,1024,1024,-11,0,0,0,332.4,0,0,45,3.451,3.437,0,0,0,0,4.943,73.22,178.98433742041,3.28084,6,P-GPS,
13200,2025-04-22 04:57:21,0,0,3.28084,,,178.98433742041,3.937008,0.447388,0,0,15,2,6.89,179.31242142041,3.608924,1.342164,0,-0.447388,0,0,8.8, 2.8, 0.3,0,1,958,1024,1024,1024,-10,0,0,0,332.4,0,0,45,3.451,3.437,0,0,0,0,4.943,73.22,178.98433742041,3.28084,6,P-GPS,
13300,2025-04-22 04:57:21,0,0,3.28084,,,178.98433742041,3.937008,0.671082,0,0,14,2,6.89,179.31242142041,3.608924,1.342164,0,-0.671082,0,0,8.9, 0.7, 0.4,0,1,985,1024,1024,1024,-6,0,0,0,332.4,0,0,45,3.451,3.437,0,0,0,0,4.943,73.22,178.98433742041,3.28084,6,P-GPS,
13400,2025-04-22 04:57:21,0,0,3.28084,,,178.98433742041,3.937008,0.671082,0,0,14,2,6.89,179.31242142041,3.608924,1.342164,0,-0.671082,0,0,8.9, 0.1, 0.4,0,1,981,1024,1024,1024,-7,0,0,0,332.4,0,0,45,3.451,3.437,0,0,0,0,4.943,73.22,178.98433742041,3.28084,6,P-GPS,
13500,2025-04-22 04:57:21,0,0,3.28084,,,178.98433742041,3.937008,0.671082,0,0,14,2,6.89,179.31242142041,3.608924,1.342164,0,-0.671082,0,0,8.9, -0.1, 0.5,0,1,979,1024,1024,1024,-7,0,0,0,332.4,0,0,45,3.451,3.437,0,0,0,0,4.943,73.22,178.98433742041,3.28084,6,P-GPS,
13600,2025-04-22 04:57:21,0,0,3.28084,,,178.98433742041,3.937008,0.447388,0,0,14,2,6.89,179.31242142041,3.608924,1.342164,0,-0.447388,0,0,8.8, -0.1, 0.6,0,1,977,1024,1024,1024,-7,0,0,0,332.4,0,0,45,3.451,3.437,0,0,0,0,4.943,73.22,178.98433742041,3.28084,6,P-GPS,
13700,2025-04-22 04:57:21,0,0,3.28084,,,178.98433742041,3.937008,0.447388,0,0,12,2,6.89,179.31242142041,3.608924,1.342164,0,-0.447388,0,0,8.9, 0, 0.4,0,1,977,1024,1024,1024,-7,0,0,0,332.4,0,0,45,3.451,3.437,0,0,0,0,4.943,73.22,178.98433742041,3.28084,6,P-GPS,
13800,2025-04-22 04:57:21,0,0,3.28084,,,178.98433742041,3.937008,0.447388,0,0,12,2,6.89,179.31242142041,3.608924,1.342164,0,-0.447388,0,0,8.9, 0.1, 0.4,0,1,977,1024,1024,1024,-7,0,0,0,332.4,0,0,45,3.451,3.437,0,0,0,0,4.943,73.22,178.98433742041,3.28084,6,P-GPS,
13900,2025-04-22 04:57:21,0,0,3.28084,,,178.98433742041,3.937008,0.447388,0,0,13,2,6.89,179.31242142041,3.608924,1.342164,0,-0.447388,0,0,8.9, 0.2, 0.2,0,1,977,1024,1024,1024,-7,0,0,0,332.4,0,0,45,3.451,3.437,0,0,0,0,4.943,73.22,178.98433742041,3.28084,6,P-GPS,
14000,2025-04-22 04:57:22,0,0,3.28084,,,178.98433742041,3.937008,0.447388,0,0,13,2,6.89,179.31242142041,3.608924,1.342164,0,-0.447388,0,0,9, 0.3, 0.5,0,1,976,1024,1024,1024,-7,0,0,0,332.4,0,0,45,3.451,3.437,0,0,0,0,4.943,73.22,178.98433742041,3.28084,6,P-GPS,
14100,2025-04-22 04:57:22,0,0,3.28084,,,178.98433742041,3.937008,0.447388,0,0,15,2,6.881,179.31242142041,3.608924,1.342164,0,-0.447388,0,0,9, 0.4, 0.4,0,1,978,1024,1024,1024,-7,0,0,0,332.4,0,0,44,3.449,3.434,0,0,0,0,4.98,73.4,178.98433742041,3.28084,6,P-GPS,
14200,2025-04-22 04:57:22,0,0,3.28084,,,178.98433742041,3.937008,0.447388,0,0,15,2,6.881,179.31242142041,3.608924,1.342164,0,-0.447388,0,0,9, 0.4, 0.4,0,1,983,1024,1024,1024,-6,0,0,0,332.4,0,0,44,3.449,3.434,0,0,0,0,4.98,73.4,178.98433742041,3.28084,6,P-GPS,
14300,2025-04-22 04:57:22,0,0,3.28084,,,178.98433742041,3.937008,0.447388,0,0,15,2,6.881,179.31242142041,3.608924,1.342164,0,-0.447388,0,0,8.9, 0.3, 0.2,0,1,985,1024,1024,1024,-6,0,0,0,332.4,0,0,44,3.449,3.434,0,0,0,0,4.98,73.4,178.98433742041,3.28084,6,P-GPS,
14400,2025-04-22 04:57:22,0,0,3.28084,,,178.98433742041,3.937008,0.447388,0,0,15,2,6.881,179.31242142041,3.608924,1.342164,0,-0.447388,0,0,8.9, 0.2, 0.1,0,1,1014,1024,1024,1024,-2,0,0,0,332.4,0,0,44,3.449,3.434,0,0,0,0,4.98,73.4,178.98433742041,3.28084,6,P-GPS,
14500,2025-04-22 04:57:22,0,0,3.28084,,,178.98433742041,3.937008,0.447388,0,0,15,2,6.881,179.31242142041,3.608924,1.342164,0,-0.447388,0,0,9, 0.3, 0,0,1,1014,1024,1024,1024,-2,0,0,0,332.4,0,0,44,3.449,3.434,0,0,0,0,4.98,73.4,178.98433742041,3.28084,6,P-GPS,
14600,2025-04-22 04:57:22,0,0,3.28084,,,178.98433742041,3.937008,0.447388,0,0,15,2,6.881,179.31242142041,3.608924,1.342164,0,-0.447388,0,0,9, -0.3, 0.2,0,1,1015,1024,1024,1024,-1,0,0,0,332.4,0,0,44,3.449,3.434,0,0,0,0,4.98,73.4,178.98433742041,3.28084,6,P-GPS,
14700,2025-04-22 04:57:22,0,0,3.28084,,,178.98433742041,3.937008,0.447388,0,0,15,2,6.881,179.31242142041,3.608924,1.342164,0,-0.447388,0,0,9.1, -1.5, 0.1,0,1,1015,1024,1024,1024,-1,0,0,0,332.4,0,0,44,3.449,3.434,0,0,0,0,4.98,73.4,178.98433742041,3.28084,6,P-GPS,
14800,2025-04-22 04:57:22,0,0,3.28084,,,178.98433742041,3.937008,0.223694,0,0,15,2,6.881,179.31242142041,3.608924,1.342164,0,-0.223694,0,0,9.1, -1.8, 0,0,1,1015,1024,1024,1024,-1,0,0,0,332.4,0,0,44,3.449,3.434,0,0,0,0,4.98,73.4,178.98433742041,3.28084,6,P-GPS,
14900,2025-04-22 04:57:22,0,0,3.28084,,,178.98433742041,3.937008,0.223694,0,0,15,2,6.881,179.31242142041,3.608924,1.342164,0,-0.223694,0,0,9, -1.6, 0.1,0,1,1015,1024,1024,1024,-1,0,0,0,332.4,0,0,44,3.449,3.434,0,0,0,0,4.98,73.4,178.98433742041,3.28084,6,P-GPS,
15000,2025-04-22 04:57:22,0,0,3.28084,,,178.98433742041,3.937008,0,0,0,15,2,6.881,179.31242142041,3.608924,1.342164,0,0,0,0,9, -1.4, 0,0,1,1015,1024,1024,1024,-1,0,0,0,332.4,0,0,44,3.449,3.434,0,0,0,0,4.98,73.4,178.98433742041,3.28084,6,P-GPS,
15100,2025-04-22 04:57:23,0,0,3.28084,,,178.98433742041,3.937008,0,0,0,16,2,6.876,179.31242142041,3.608924,1.342164,0,0,0,0,9, -1.8, -0.2,0,1,1015,1024,1024,1024,-1,0,0,0,332.4,0,0,44,3.443,3.427,0,0,0,0,4.937,73.58,178.98433742041,3.28084,6,P-GPS,
15200,2025-04-22 04:57:23,0,0,3.28084,,,178.98433742041,3.937008,0,0,0,16,2,6.876,179.31242142041,3.608924,1.342164,0,0,0,0,8.9, -0.9, -0.3,0,1,1018,1024,1024,1024,-1,0,0,0,332.4,0,0,44,3.443,3.427,0,0,0,0,4.937,73.58,178.98433742041,3.28084,6,P-GPS,
15300,2025-04-22 04:57:23,0,0,3.28084,,,178.98433742041,3.937008,0,0,0,16,2,6.876,179.31242142041,3.608924,1.342164,0,0,0,0,8.8, -0.5, 0,0,1,1024,1024,1024,1024,0,0,0,0,332.4,0,0,44,3.443,3.427,0,0,0,0,4.937,73.58,178.98433742041,3.28084,6,P-GPS,
15400,2025-04-22 04:57:23,0,0,3.28084,,,178.98433742041,3.937008,0,0,0,16,2,6.876,179.31242142041,3.608924,1.342164,0,0,0,0,8.8, -0.2, 0.2,0,1,1024,1024,1024,1024,0,0,0,0,332.4,0,0,44,3.443,3.427,0,0,0,0,4.937,73.58,178.98433742041,3.28084,6,P-GPS,
15500,2025-04-22 04:57:23,0,0,3.28084,,,178.98433742041,3.937008,0,0,0,16,2,6.876,179.31242142041,3.608924,1.342164,0,0,0,0,8.8, 0, 0.5,0,1,1024,1024,1024,1024,0,0,0,0,332.4,0,0,44,3.443,3.427,0,0,0,0,4.937,73.58,178.98433742041,3.28084,6,P-GPS,
15600,2025-04-22 04:57:23,0,0,3.28084,,,178.98433742041,3.937008,0,0,0,17,2,6.876,179.31242142041,3.608924,1.342164,0,0,0,0,8.8, 0, 0.3,0,1,1024,1024,1024,1024,0,0,0,0,332.4,0,0,44,3.443,3.427,0,0,0,0,4.937,73.58,178.98433742041,3.28084,6,P-GPS,
15700,2025-04-22 04:57:23,0,0,3.28084,,,178.98433742041,3.937008,0,0,0,17,2,6.876,179.31242142041,3.608924,1.342164,0,0,0,0,8.9, -0.1, 0.5,0,1,1024,1024,1024,1024,0,0,0,0,332.4,0,0,44,3.443,3.427,0,0,0,0,4.937,73.58,178.98433742041,3.28084,6,P-GPS,
15800,2025-04-22 04:57:23,0,0,3.28084,,,178.98433742041,3.937008,0,0,0,17,2,6.876,179.31242142041,3.608924,1.342164,0,0,0,0,8.9, -0.1, 0.5,0,1,1024,1024,1024,1024,0,0,0,0,332.4,0,0,44,3.443,3.427,0,0,0,0,4.937,73.58,178.98433742041,3.28084,6,P-GPS,
15900,2025-04-22 04:57:23,0,0,3.28084,,,178.98433742041,3.937008,0,0,0,17,2,6.876,179.31242142041,3.608924,1.342164,0,0,0,0,8.8, 0, 0.6,0,1,1024,1024,1024,1024,0,0,0,0,332.4,0,0,44,3.443,3.427,0,0,0,0,4.937,73.58,178.98433742041,3.28084,6,P-GPS,
16000,2025-04-22 04:57:24,0,0,3.28084,,,178.98433742041,3.937008,0,0,0,15,2,6.876,179.31242142041,3.608924,1.342164,0,0,0,0,8.8, 0, 0.7,0,1,1024,1024,1024,1024,0,0,0,0,332.4,0,0,44,3.443,3.427,0,0,0,0,4.937,73.58,178.98433742041,3.28084,6,P-GPS,
16100,2025-04-22 04:57:24,0,0,3.28084,,,178.98433742041,3.937008,0,0,0,15,2,6.873,179.31242142041,3.608924,1.342164,0,0,0,0,8.9, 0, 0.6,0,1,1024,1024,1024,1024,0,0,0,0,332.4,0,0,44,3.445,3.43,0,0,0,0,4.96,73.58,178.98433742041,3.28084,6,P-GPS,
16200,2025-04-22 04:57:24,0,0,3.28084,,,178.98433742041,3.937008,0,0,0,15,2,6.873,179.31242142041,3.608924,1.342164,0,0,0,0,8.9, 0.2, 0.5,0,1,1024,853,1024,1024,0,-26,0,0,332.4,0,0,44,3.445,3.43,0,0,0,0,4.96,73.58,178.98433742041,3.28084,6,P-GPS,
16300,2025-04-22 04:57:24,0,0,3.28084,,,178.98433742041,3.937008,0,0,0,15,2,6.873,179.31242142041,3.608924,1.342164,0,0,0,0,8.9, 0.1, 0.2,0,1,1024,835,1024,1024,0,-29,0,0,332.4,0,0,44,3.445,3.43,0,0,0,0,4.96,73.58,178.98433742041,3.28084,6,P-GPS,
16400,2025-04-22 04:57:24,0,0,3.28084,,,178.98433742041,3.937008,0,0,0,15,2,6.873,179.31242142041,3.608924,1.342164,0,0,0,0,8.8, 0, -1.3,0,1,1024,850,1024,1024,0,-26,0,0,332.4,0,0,44,3.445,3.43,0,0,0,0,4.96,73.58,178.98433742041,3.28084,6,P-GPS,
16500,2025-04-22 04:57:24,0,0,3.28084,,,178.98433742041,3.937008,0,0,0,15,2,6.873,179.31242142041,3.608924,1.342164,0,0,0,0,8.8, 0, -2.4,0,1,1024,869,1024,1024,0,-23,0,0,332.4,0,0,44,3.445,3.43,0,0,0,0,4.96,73.58,178.98433742041,3.28084,6,P-GPS,
16600,2025-04-22 04:57:24,0,0,3.28084,,,178.98433742041,3.937008,0,0,0,15,2,6.873,179.31242142041,3.608924,1.342164,0,0,0,0,8.8, 0, -2.5,0,1,1024,869,1024,1024,0,-23,0,0,332.4,0,0,44,3.445,3.43,0,0,0,0,4.96,73.58,178.98433742041,3.28084,6,P-GPS,
16700,2025-04-22 04:57:24,0,0,3.28084,,,178.98433742041,3.937008,0.223694,0,0,15,2,6.873,179.31242142041,3.608924,1.342164,0,0,-0.223694,0,8.9, 0, -2.2,0,1,1024,935,1024,1024,0,-13,0,0,332.4,0,0,44,3.445,3.43,0,0,0,0,4.96,73.58,178.98433742041,3.28084,6,P-GPS,
16800,2025-04-22 04:57:24,0,0,3.28084,,,178.98433742041,3.937008,0.223694,0,0,16,2,6.873,179.31242142041,3.608924,1.342164,0,0,-0.223694,0,9, 0, -1.1,0,1,1024,948,1024,1024,0,-12,0,0,332.4,0,0,44,3.445,3.43,0,0,0,0,4.96,73.58,178.98433742041,3.28084,6,P-GPS,
16900,2025-04-22 04:57:24,0,0,3.28084,,,178.98433742041,3.937008,0.223694,0,0,16,2,6.873,179.31242142041,3.608924,1.342164,0,0,-0.223694,0,9, 0, -0.4,0,1,1024,970,1024,1024,0,-8,0,0,332.4,0,0,44,3.445,3.43,0,0,0,0,4.96,73.58,178.98433742041,3.28084,6,P-GPS,
17000,2025-04-22 04:57:25,0,0,3.28084,,,178.98433742041,3.937008,0.447388,0,0,15,2,6.873,179.31242142041,3.608924,1.342164,0,0,-0.447388,0,9, 0, -0.1,0,1,1024,977,1024,1024,0,-7,0,0,332.4,0,0,44,3.445,3.43,0,0,0,0,4.96,73.58,178.98433742041,3.28084,6,P-GPS,
17100,2025-04-22 04:57:25,0,0,3.28084,,,178.98433742041,3.937008,0.447388,0,0,15,2,6.869,179.31242142041,3.608924,1.342164,0,0,-0.447388,0,9, 0.3, 0.1,0,1,1024,980,1024,1024,0,-7,0,0,332.4,0,0,44,3.44,3.424,0,0,0,0,4.885,73.76,178.98433742041,3.28084,6,P-GPS,
17200,2025-04-22 04:57:25,0,0,3.608924,,,179.31242142041,3.937008,0.447388,0,0,15,2,6.869,179.31242142041,3.608924,1.342164,0,0,-0.447388,0,9, 0.1, 0.4,0,1,1024,1011,1024,1024,0,-2,0,0,332.4,0,0,44,3.44,3.424,0,0,0,0,4.885,73.76,179.31242142041,3.608924,6,P-GPS,
17300,2025-04-22 04:57:25,0,0,3.608924,,,179.31242142041,3.937008,0.223694,0,0,15,2,6.869,179.31242142041,3.608924,1.342164,0,0,-0.223694,0,8.9, -0.1, 0.6,0,1,1024,1024,1024,1024,0,0,0,0,332.4,0,0,44,3.44,3.424,0,0,0,0,4.885,73.76,179.31242142041,3.608924,6,P-GPS,
17400,2025-04-22 04:57:25,0,0,3.608924,,,179.31242142041,3.937008,0.223694,0,0,15,2,6.869,179.31242142041,3.608924,1.342164,0,0,-0.223694,0,8.8, -0.3, 1.2,0,1,1024,1024,1024,1024,0,0,0,0,332.4,0,0,44,3.44,3.424,0,0,0,0,4.885,73.76,179.31242142041,3.608924,6,P-GPS,
17500,2025-04-22 04:57:25,0,0,3.608924,,,179.31242142041,3.937008,0.223694,0,0,15,2,6.869,179.31242142041,3.608924,1.342164,0,0,-0.223694,0,8.7, -0.5, 2,0,1,1024,1024,1024,1024,0,0,0,0,332.4,0,0,44,3.44,3.424,0,0,0,0,4.885,73.76,179.31242142041,3.608924,6,P-GPS,
17600,2025-04-22 04:57:25,0,0,3.608924,,,179.31242142041,3.937008,0.223694,0,0,16,2,6.869,179.31242142041,3.608924,1.342164,0,0,-0.223694,0,8.6, -0.5, 1.6,0,1,1024,1024,1024,1024,0,0,0,0,332.4,0,0,44,3.44,3.424,0,0,0,0,4.885,73.76,179.31242142041,3.608924,6,P-GPS,
17700,2025-04-22 04:57:25,0,0,3.608924,,,179.31242142041,3.937008,0.223694,0,0,16,2,6.869,179.31242142041,3.608924,1.342164,0,0,-0.223694,0,8.7, -0.5, 1.1,0,1,1024,1024,1024,1024,0,0,0,0,332.4,0,0,44,3.44,3.424,0,0,0,0,4.885,73.76,179.31242142041,3.608924,6,P-GPS,
17800,2025-04-22 04:57:25,0,0,3.608924,,,179.31242142041,3.937008,0.223694,0,0,15,2,6.869,179.31242142041,3.608924,1.342164,0,0,0,0,8.8, -0.2, 0.8,0,1,1024,1024,1024,1024,0,0,0,0,332.4,0,0,44,3.44,3.424,0,0,0,0,4.885,73.76,179.31242142041,3.608924,6,P-GPS,
17900,2025-04-22 04:57:25,0,0,3.608924,,,179.31242142041,3.937008,0,0,0,15,2,6.869,179.31242142041,3.608924,1.342164,0,0,0,0,8.8, -0.1, 1.2,0,1,1024,1024,1024,1024,0,0,0,0,332.4,0,0,44,3.44,3.424,0,0,0,0,4.885,73.76,179.31242142041,3.608924,6,P-GPS,
18000,2025-04-22 04:57:25,0,0,3.608924,,,179.31242142041,3.937008,0,0,0,15,2,6.869,179.31242142041,3.608924,1.342164,0,0,0,0,8.7, -0.2, 0.9,0,1,1024,1024,1024,1024,0,0,0,0,332.4,0,0,44,3.44,3.424,0,0,0,0,4.885,73.76,179.31242142041,3.608924,6,P-GPS,
18100,2025-04-22 04:57:26,0,0,3.608924,,,179.31242142041,3.937008,0,0,0,16,2,6.86,179.31242142041,3.608924,1.342164,0,0,0,0,8.8, -0.2, 1,0,1,1024,1024,1024,1024,0,0,0,0,332.4,0,0,44,3.437,3.421,0,0,0,0,4.956,73.76,179.31242142041,3.608924,6,P-GPS,
18200,2025-04-22 04:57:26,0,0,3.608924,,,179.31242142041,3.937008,0,0,0,16,2,6.86,179.31242142041,3.608924,1.342164,0,0,0,0,8.8, -0.1, 1.3,0,1,1054,1024,1024,1024,5,0,0,0,332.4,0,0,44,3.437,3.421,0,0,0,0,4.956,73.76,179.31242142041,3.608924,6,P-GPS,
18300,2025-04-22 04:57:26,0,0,3.608924,,,179.31242142041,3.937008,0,0,0,16,2,6.86,179.31242142041,3.608924,1.342164,0,0,0,0,8.8, -0.1, 1.5,0,1,1228,1024,1024,1024,31,0,0,0,332.4,0,0,44,3.437,3.421,0,0,0,0,4.956,73.76,179.31242142041,3.608924,6,P-GPS,
18400,2025-04-22 04:57:26,34.0199866162174,-118.291015137591,3.608924,,,179.31242142041,3.937008,0,0,0,16,2,6.86,179.31242142041,3.608924,1.342164,0,0,0,0,8.8, -0.2, 1.9,0,1,1242,1024,1024,1024,33,0,0,0,332.4,0,0,44,3.437,3.421,0,0,0,0,4.956,73.76,179.31242142041,3.608924,6,P-GPS,
18500,2025-04-22 04:57:26,34.0199862508467,-118.291016920841,3.608924,,,179.31242142041,3.937008,0,0.55549214376,0.55549214376,16,2,6.86,179.31242142041,3.608924,1.342164,0.55549214376,0,0,0,8.8, -2, 2.1,0,1,1242,1024,1024,1024,33,0,0,0,332.4,0,0,44,3.437,3.421,0,0,0,0,4.956,73.76,179.31242142041,3.608924,6,P-GPS,
18600,2025-04-22 04:57:26,34.0199571002792,-118.290792355382,3.608924,,,179.31242142041,3.937008,0,68.2250678,69.292653136,16,2,6.86,179.31242142041,3.608924,1.342164,68.2250678,0,0,0,8.8, -3.4, 2,0,1,1250,1024,1024,1024,34,0,0,0,332.4,0,0,44,3.437,3.421,0,0,0,0,4.956,73.76,179.31242142041,3.608924,6,P-GPS,
18700,2025-04-22 04:57:26,34.0198927496244,-118.290291364332,3.608924,,,179.31242142041,3.937008,0.223694,221.534127824,222.602041244,16,2,6.86,179.31242142041,3.608924,1.342164,221.534127824,0.223694,0,0,8.8, -3.6, 1.8,0,1,1250,1024,1024,1024,34,0,0,0,332.4,0,0,44,3.437,3.421,0,0,0,0,4.956,73.76,179.31242142041,3.608924,6,P-GPS,
18800,2025-04-22 04:57:26,34.0198574957406,-118.290015923127,3.608924,,,179.31242142041,3.937008,0.223694,305.815626584,306.883540004,14,2,6.86,179.31242142041,3.608924,1.342164,305.815626584,0.223694,0,0,8.8, -3.7, 1.8,0,1,1248,1024,1024,1024,34,0,0,0,332.4,0,0,44,3.437,3.421,0,0,0,0,4.956,73.76,179.31242142041,3.608924,6,P-GPS,
18900,2025-04-22 04:57:26,34.0198583895077,-118.290010301945,3.608924,,,179.31242142041,3.937008,0.447388,307.445547896,308.614511188,14,2,6.86,179.31242142041,3.608924,1.342164,307.445547896,0.447388,0,0,8.9, -3.7, 1.4,0,1,1248,1024,1024,1024,34,0,0,0,332.4,0,0,44,3.437,3.421,0,0,0,0,4.956,73.76,179.31242142041,3.608924,6,P-GPS,
19000,2025-04-22 04:57:27,34.0198584965539,-118.290010649776,3.608924,,,179.31242142041,3.937008,0.447388,307.335639756,308.726715916,15,2,6.86,179.31242142041,3.608924,1.342164,307.445547896,0.447388,0,0,8.9, -3.4, 1.4,0,1,1249,1024,1024,1024,34,0,0,0,332.4,0,0,44,3.437,3.421,0,0,0,0,4.956,73.76,179.31242142041,3.608924,6,P-GPS,
19100,2025-04-22 04:57:27,34.0198584105287,-118.290011120272,3.608924,,,179.31242142041,3.937008,0.671082,307.19981298,308.872385212,15,2,6.86,179.31242142041,3.608924,1.342164,307.445547896,0.671082,0,0,8.8, -2.9, 1.5,0,1,1265,1024,1024,1024,37,0,0,0,332.4,0,0,44,3.439,3.42,0,0,0,0,4.956,73.76,179.31242142041,3.608924,6,P-GPS,
19200,2025-04-22 04:57:27,34.0198583642115,-118.290011494404,3.608924,,,179.31242142041,3.937008,0.671082,307.090561008,308.986886528,15,2,6.86,179.31242142041,3.608924,1.342164,307.445547896,0.671082,0,0,8.9, -3.1, 1.4,0,1,1266,1024,1024,1024,37,0,0,0,332.4,0,0,44,3.439,3.42,0,0,0,0,4.956,73.76,179.31242142041,3.608924,6,P-GPS,
19300,2025-04-22 04:57:27,34.0198580708868,-118.290012235232,3.608924,,,179.31242142041,3.937008,0.894776,306.885508508,309.234918032,15,2,6.86,179.31242142041,3.608924,1.342164,307.445547896,0.894776,0,0,8.9, -3.4, 1.1,0,1,1262,1024,1024,1024,36,0,0,0,332.4,0,0,44,3.439,3.42,0,0,0,0,4.956,73.76,179.31242142041,3.608924,6,P-GPS,
19400,2025-04-22 04:57:27,34.019857966891,-118.290012567975,3.608924,,,179.31242142041,3.937008,0.894776,306.792004568,309.342529584,15,2,6.86,179.31242142041,3.608924,1.342164,307.445547896,0.894776,0,0,9, -3, 1.5,0,1,1262,1024,1024,1024,36,0,0,0,332.4,0,0,44,3.439,3.42,0,0,0,0,4.956,73.76,179.31242142041,3.608924,6,P-GPS,
19500,2025-04-22 04:57:27,34.0198577434131,-118.290012966896,3.608924,,,179.31242142041,3.937008,1.11847,306.685049184,309.48819888,14,2,6.86,179.31242142041,3.608924,1.342164,307.445547896,1.11847,0,0,9, -3, 1.3,0,1,1259,1024,1024,1024,36,0,0,0,332.4,0,0,44,3.439,3.42,0,0,0,0,4.956,73.76,179.31242142041,3.608924,6,P-GPS,
19600,2025-04-22 04:57:27,34.0198576658769,-118.290013252385,3.608924,,,179.31242142041,3.937008,1.11847,306.604012436,309.579078148,14,5,6.86,179.31242142041,3.608924,1.342164,307.445547896,1.11847,0,0,9, -2.8, 1.1,0,1,1251,1024,1024,1024,34,0,0,0,332.4,0,0,44,3.439,3.42,0,0,0,0,4.956,73.76,179.31242142041,3.608924,6,P-GPS,
19700,2025-04-22 04:57:27,34.0198572855771,-118.290013513709,3.608924,,,179.31242142041,3.937008,1.11847,306.547253904,309.738855056,14,5,6.86,179.31242142041,3.608924,1.342164,307.445547896,1.11847,0,0,9, -3, 0.9,0,1,1247,1024,1024,1024,34,0,0,0,332.4,0,0,44,3.439,3.42,0,0,0,0,4.956,73.76,179.31242142041,3.608924,6,P-GPS,
19800,2025-04-22 04:57:27,34.0198574178961,-118.290013620936,3.608924,,,179.31242142041,3.937008,1.342164,306.507883824,309.796925924,14,5,6.86,179.31242142041,3.608924,1.342164,307.445547896,1.342164,0,0,9, -2.8, 0.9,0,1,1247,1024,1024,1024,34,0,0,0,332.4,0,0,44,3.439,3.42,0,0,0,0,4.956,73.76,179.31242142041,3.608924,6,P-GPS,
19900,2025-04-22 04:57:27,34.0198576066938,-118.290013658552,3.608924,,,179.31242142041,3.937008,1.342164,306.48623028,309.866807816,14,5,6.86,179.31242142041,3.608924,1.342164,307.445547896,1.342164,0,0,8.9, -2.6, 0.9,0,1,1218,1024,1024,1024,29,0,0,0,332.4,0,0,44,3.439,3.42,0,0,0,0,4.956,73.76,179.31242142041,3.608924,6,P-GPS,
20000,2025-04-22 04:57:27,34.0198576275481,-118.290013732891,3.608924,,,179.31242142041,3.937008,1.342164,306.462608232,309.890429864,14,5,6.86,179.31242142041,3.608924,1.342164,307.445547896,1.342164,0,0,8.9, -2.5, 0.8,0,1,1223,1024,1024,1024,30,0,0,0,332.4,0,0,44,3.439,3.42,0,0,0,0,4.956,73.76,179.31242142041,3.608924,6,P-GPS,
20100,2025-04-22 04:57:28,34.0198574946764,-118.290013873463,3.608924,,,179.31242142041,3.937008,1.565858,306.428159412,309.955062412,14,4,6.861,179.31242142041,3.608924,1.565858,307.445547896,1.565858,0,0,9.1, -2, 1,0,1,1224,1024,1024,1024,30,0,0,0,332.4,0,0,44,3.441,3.422,0,0,0,0,4.903,73.94,179.31242142041,3.608924,6,P-GPS,
20200,2025-04-22 04:57:28,34.0198570435431,-118.290013569345,3.608924,,,179.31242142041,3.937008,1.565858,306.544301148,310.143382628,14,4,6.861,179.31242142041,3.608924,1.565858,307.445547896,1.565858,0,0,9.1, -2.1, 1.4,0,1,1224,1024,1024,1024,30,0,0,0,332.4,0,0,44,3.441,3.422,0,0,0,0,4.903,73.94,179.31242142041,3.608924,6,P-GPS,
20300,2025-04-22 04:57:28,34.0198573048181,-118.290013365363,3.608924,,,179.31242142041,3.937008,1.5882274,306.590560992,310.256899692,15,4,6.861,179.31242142041,3.608924,1.5882274,307.445547896,1.565858,0.223694,0,9, -1.9, 1.3,0,1,1210,1024,1024,1024,28,0,0,0,332.4,0,0,44,3.441,3.422,0,0,0,0,4.903,73.94,179.31242142041,3.608924,6,P-GPS,
20400,2025-04-22 04:57:28,34.0198575677628,-118.290013140476,3.608924,,,179.31242142041,3.937008,1.5882274,306.643054432,310.374681848,15,4,6.861,179.31242142041,3.608924,1.5882274,307.445547896,1.565858,0.223694,0,9, -1.7, 1.2,0,1,1222,1024,1024,1024,30,0,0,0,332.4,0,0,44,3.441,3.422,0,0,0,0,4.903,73.94,179.31242142041,3.608924,6,P-GPS,
20500,2025-04-22 04:57:28,34.0198578413017,-118.290012897299,3.608924,,,179.31242142041,3.937008,1.565858,306.700469132,310.4986976,14,4,6.861,179.31242142041,3.608924,1.5882274,307.445547896,1.565858,0,0,9.1, -1.7, 0.9,0,1,1204,1024,1024,1024,27,0,0,0,332.4,0,0,44,3.441,3.422,0,0,0,0,4.903,73.94,179.31242142041,3.608924,6,P-GPS,
20600,2025-04-22 04:57:28,34.0198585653165,-118.290011745976,3.608924,,,179.31242142041,3.937008,1.565858,307.004274916,310.935705488,14,4,6.861,179.31242142041,3.608924,1.5882274,307.445547896,1.565858,0,0,9, -1.8, 1.2,0,1,1203,1024,1024,1024,27,0,0,0,332.4,0,0,44,3.441,3.422,0,0,0,0,4.903,73.94,179.31242142041,3.608924,6,P-GPS,
20700,2025-04-22 04:57:28,34.0198591234788,-118.290011436987,3.28084,,,178.98433742041,3.937008,1.789552,307.065626624,311.15978686,13,4,6.861,179.31242142041,3.608924,1.789552,307.445547896,1.789552,0,0,9, -2, 1.5,0,1,1199,1024,1024,1024,27,0,0,0,332.4,0,0,44,3.441,3.422,0,0,0,0,4.903,73.94,178.98433742041,3.28084,6,P-GPS,
20800,2025-04-22 04:57:28,34.0198593324297,-118.290011299564,3.28084,,,178.98433742041,3.937008,1.8119214,307.095154184,311.246401036,13,4,6.861,179.31242142041,3.608924,1.8119214,307.445547896,1.789552,0.223694,0,8.9, -2.2, 1.4,0,1,1198,1024,1024,1024,26,0,0,0,332.4,0,0,44,3.441,3.422,0,0,0,0,4.903,73.94,178.98433742041,3.28084,6,P-GPS,"Home Point updated. RTH altitude adjusted to 15 m (Code: 120852)"
20900,2025-04-22 04:57:28,34.0198591540375,-118.290011355854,3.28084,,,178.98433742041,3.937008,1.8119214,307.08826442,311.313658256,14,4,6.861,179.31242142041,3.608924,1.8119214,307.445547896,1.789552,0.223694,0,9, -2.4, 1,0,1,1176,1024,1024,1024,23,0,0,0,332.4,0,0,44,3.441,3.422,0,0,0,0,4.903,73.94,178.98433742041,3.28084,6,P-GPS,
21000,2025-04-22 04:57:29,34.0198595195843,-118.290011152738,3.28084,,,178.98433742041,3.937008,1.8119214,307.128618752,311.460639888,14,4,6.861,179.31242142041,3.608924,1.8119214,307.445547896,1.789552,0.223694,0,9, -2.3, 1.4,0,1,1165,1024,1024,1024,21,0,0,0,332.4,0,0,44,3.441,3.422,0,0,0,0,4.903,73.94,178.98433742041,3.28084,6,P-GPS,
21100,2025-04-22 04:57:29,34.0198600355935,-118.290010957003,3.28084,,,178.98433742041,3.937008,1.8119214,307.15880248,311.657818372,14,4,6.862,179.31242142041,3.608924,1.8119214,307.445547896,1.789552,0.223694,0,8.9, -2.2, 1.4,0,1,1165,1024,1024,1024,21,0,0,0,332.4,0,0,44,3.44,3.422,0,0,0,0,4.855,74.12,178.98433742041,3.28084,6,P-GPS,
21200,2025-04-22 04:57:29,34.0198606617346,-118.290010711437,3.28084,,,178.98433742041,3.937008,1.8119214,307.19817256,311.89797586,14,4,6.862,179.31242142041,3.608924,1.8119214,307.445547896,1.789552,0.223694,0,8.9, -2.3, 0.8,0,1,1122,1024,1024,1024,15,0,0,0,332.4,0,0,44,3.44,3.422,0,0,0,0,4.855,74.12,178.98433742041,3.28084,6,P-GPS,
21300,2025-04-22 04:57:29,34.0198614561537,-118.290010397681,3.28084,,,178.98433742041,3.937008,1.8119214,307.248697496,312.20309398,14,4,6.862,179.31242142041,3.608924,1.8119214,307.445547896,1.789552,0.223694,0,9, -2, 1.1,0,1,1024,1024,1024,1024,0,0,0,0,332.4,0,0,44,3.44,3.422,0,0,0,0,4.855,74.12,178.98433742041,3.28084,6,P-GPS,
21400,2025-04-22 04:57:29,34.0198628365327,-118.290010041742,3.28084,,,178.98433742041,3.937008,1.8119214,307.280521644,312.71818586,14,4,6.862,179.31242142041,3.608924,1.8119214,307.445547896,1.789552,0.223694,0,9, 4, 1,0,1,1024,1024,1024,1024,0,0,0,0,332.4,0,0,44,3.44,3.422,0,0,0,0,4.855,74.12,178.98433742041,3.28084,6,P-GPS,
21500,2025-04-22 04:57:29,34.0198632379952,-118.290009926338,3.28084,,,178.98433742041,3.937008,1.565858,307.293645004,312.868776416,14,4,6.862,179.31242142041,3.608924,1.8119214,307.445547896,1.565858,0,0,8.9, 6.8, 0.8,0,1,1024,1024,1024,1024,0,0,0,0,332.4,0,0,44,3.44,3.422,0,0,0,0,4.855,74.12,178.98433742041,3.28084,6,P-GPS,
21600,2025-04-22 04:57:29,34.0198634256251,-118.290009786161,3.28084,,,178.98433742041,3.937008,1.342164,307.325469152,312.949156996,14,4,6.862,179.31242142041,3.608924,1.8119214,307.445547896,1.342164,0,0,9, 6.4, 1,0,1,1024,1024,1024,1024,0,0,0,0,332.4,0,0,44,3.44,3.422,0,0,0,0,4.855,74.12,178.98433742041,3.28084,6,P-GPS,
21700,2025-04-22 04:57:29,34.019863400142,-118.29000959169,3.28084,,,178.98433742041,3.937008,0.894776,307.38518044,313.008868284,14,4,6.862,179.31242142041,3.608924,1.8119214,307.445547896,0.894776,0,0,9.1, 5.8, 1.1,0,1,1024,1024,1024,1024,0,0,0,0,332.4,0,0,44,3.44,3.422,0,0,0,0,4.855,74.12,178.98433742041,3.28084,6,P-GPS,
21800,2025-04-22 04:57:29,34.0198632760807,-118.290009447938,3.28084,,,178.98433742041,3.937008,0.671082,307.434721124,313.071532328,14,4,6.862,179.31242142041,3.608924,1.8119214,307.445547896,0.671082,0,0,8.9, 4.5, 0.9,0,1,1024,1024,1024,1024,0,0,0,0,332.4,0,0,44,3.44,3.422,0,0,0,0,4.855,74.12,178.98433742041,3.28084,6,P-GPS,
21900,2025-04-22 04:57:29,34.0198627442258,-118.290009279331,3.28084,,,178.98433742041,3.937008,0.447388,307.513789368,313.271991652,14,4,6.862,179.31242142041,3.608924,1.8119214,307.513789368,0.447388,0,0,8.9, 3.4, 0.9,0,1,1024,1024,1024,1024,0,0,0,0,332.4,0,0,44,3.44,3.422,0,0,0,0,4.855,74.12,178.98433742041,3.28084,6,P-GPS,
